poi_id,name,region,locality,address,postcode,longitude,latitude,category_level1,category_level2,category_level3,business_status,phone,website_domain,rating,rating_count,traffic_score,time_spent,update_month
45d4a0aae77ad011165983d71a2a8fe7,Alfursan Lounge - jeddah airport,Jeddah,Jeddah,"طريق المدينة المنورة،،, King Abdulaziz International Airport, Jeddah 23635, Saudi Arabia",23635,39.17140863,21.66273413,Travel & Lodging,Travel Agencies,Travel lounge,Open 24 hours,+966 12 699 9996,saudia.com,4.3,20574.0,64.43,People typically spend up to 1.5 hours here,03-2025
0b5f77bbe9c7b09a366f941317699e68,Al Sheraa Camp,Makkah Province,Rabigh,"Ankas Near Petrorabigh, Rabigh 21911, Saudi Arabia",21911,39.03545074,22.74856535,Travel & Lodging,Vacation Rentals & RV,Camping cabin,Open,+966 12 422 1136,gsest.sa,3.0,3.0,33.0,People typically spend up to 4 hours here,03-2025
66a13e4d25016031ccc54edac4c2f31d,Akbar Travels And Tourism Co. Al Khobar,Dammam Metropolitan Area,Al Khobar,"King Abdulaziz St, Al Khobar Al Shamalia, Al Khobar 34429, Saudi Arabia",34429,50.20429846,26.28732319,Travel & Lodging,Travel Agencies,Travel agency,Open,+966 13 804 0777,akbartravels.com,4.7,99.0,39.43,People typically spend up to 2.5 hours here,03-2025
56c990fdd1b320823d2ff1f218fc2c37,Sultan middle east immigration,Riyadh Province,Riyadh,"2551 Mousa Complex, Al Olaya, Building 4, ground floor, Riyadh 12221, Saudi Arabia",12221,46.68729191,24.68539613,Travel & Lodging,Travel Agencies,Travel agency,Open,+966 59 682 7467,sultanimmigration.com,4.5,64.0,65.67,People typically spend up to 3 hours here,03-2025
74766ff789833fd4c72bae688f30a526,مكتب الفارس حجزتذاكر الباصات اليمن,Al Madinah Province,Madinah,"حي المستراح، شارع عبد المجيد بن عبد العزيز, Masjid Ad Dar, Madinah 42313, Saudi Arabia",42313,39.60313943,24.48586138,Travel & Lodging,Travel Agencies,Travel agency,Open 24 hours,+966 50 746 1473,maps.app.goo.gl,4.7,44.0,43.0,People typically spend up to 2.5 hours here,03-2025
08fa533eea48f7c05843ec92d7996a0a,Tamanna Travels,Riyadh Province,Riyadh,"Ad Dirah, Riyadh 12634, Saudi Arabia",12634,46.71447743,24.63786526,Travel & Lodging,Travel Agencies,Travel agency,Open,+966 54 291 9588,facebook.com,4.2,5.0,30.43,People typically spend up to 4 hours here,03-2025
222c868caace755c6a0e1c5699f8126c,وكالة ارتقاء المسافر للسفر والسياحة,Umm Al Hamam Al Sharqi,Riyadh,"6609 Umm Al Hamam St, Umm Al Hamam Al Sharqi, Riyadh 12321, Saudi Arabia",12321,46.65224787,24.68003753,Travel & Lodging,Travel Agencies,Travel agency,Open,+966 50 966 9766,twitter.com,4.7,120.0,51.5,People typically spend up to 2 hours here,03-2025
e4c73bfb49b9cf54f9bc8804e2b80cbf,Formula Travel Agency,Jeddah,Jeddah,"7155 King Fahd Br Rd, An Nuzhah, Jeddah 23534, Saudi Arabia",23534,39.16150325,21.62422096,Travel & Lodging,Travel Agencies,Travel agency,Open,+966 9200 04080,formula.com.sa,4.4,272.0,63.14,People typically spend up to 45 min here,03-2025
4e2d2ead51adcbfaef80b9a0c382f923,Villa the Greek,Riyadh Province,Riyadh,"المهدية، طريق الملك فهد , طريق العروبه،،, Riyadh 13758, Saudi Arabia",13758,46.50897665,24.66576434,Travel & Lodging,Vacation Rentals & RV,Camping cabin,Open,+966 55 099 9920,instagram.com,4.6,235.0,34.86,People typically spend up to 4 hours here,03-2025
fc60efb55ffc15ce12efdac8d63d3893,‪Almosafer travel‬,Dammam Metropolitan Area,Dammam,"5361 8023 Al Ashriah Street, Al Mazruiyah, Dammam 32414, Saudi Arabia",32414,50.12780978,26.45136997,Travel & Lodging,Travel Agencies,Travel agency,Open,+966 9200 00997,almosafer.com,3.1,120.0,41.8,People typically spend up to 1.5 hours here,03-2025
6492bbae9109a326fa036032739c4dcb,شركة نجمة الأهلية للنقل البري,Al Madinah Province,Madinah,"Abdul Muhsin Ibn Abdul Aziz، قربان النازل شارع عمر, Madinah 42316, Saudi Arabia",42316,39.61973847,24.44911934,Travel & Lodging,Travel Agencies,Travel agency,Open,+966 54 177 0045,linktr.ee,4.1,45.0,26.86,People typically spend up to 1 hour here,03-2025
3ef805c4c4cfba80219a05b7234bd618,Akbar Travels And Tourism Co. - Jubail,Eastern Province,Al Jubail,"Al Jabal Rd, Jubail City Center, Al Jubail 35514, Saudi Arabia",35514,49.6520707,27.01176083,Travel & Lodging,Travel Agencies,Travel agency,Open,+966 55 563 2719,akbartravels.com,4.0,214.0,55.0,People typically spend up to 30 min here,03-2025
9c5e9fe9cd81233972dee3e6c58460de,New Jubail Travel agency,Eastern Province,Al Jubail,"99، Jeddah Street, near Try Restaurant, p.o. box, Al Jubail 31951, Saudi Arabia",31951,49.6509937,27.01364757,Travel & Lodging,Travel Agencies,Travel agency,Open,+966 53 553 4989,newjubailtravel.com,4.3,108.0,47.57,People typically spend up to 2 hours here,03-2025
d6e36a1b3b09745fbeba5287091e7c02,الفارس الدولي للسفر و السياحة,Jeddah,Jeddah,"Al Nakheel Center, Al-Madinah Al-Munawarah Rd, Al-Hamra'a, Jeddah 23324, Saudi Arabia",23324,39.17561656,21.5306857,Travel & Lodging,Travel Agencies,Tour agency,Open,+966 12 664 4477,alfaristours.com,4.3,206.0,31.86,People typically spend up to 4 hours here,03-2025
06481430623974e37a7c7487cff60365,الزائر للسفر والسياحة,Jeddah,Jeddah,"مركز الخليج بلازا الزائر للسفر والسياحة, Al-Madinah Al-Munawarah Rd, Al Sharafeyah, Jeddah 21415, Saudi Arabia",21415,39.17820875,21.52506294,Travel & Lodging,Travel Agencies,Tour agency,Open,+966 53 411 6540,alzayer.com.sa,4.5,95.0,41.5,People typically spend up to 1 hour here,03-2025
6f10b522c62db3a6916192af8b3cf817,Half Moon Beach,Dammam Metropolitan Area,Al Khobar,"3377 طريق الملك فهد بن عبدالعزيز الظهران 34737 6631, Al Khobar 34737, Saudi Arabia",34737,50.0493289,26.19013286,Travel & Lodging,Cruises & Ferries,Boat rental service,Open,+966 56 680 0220,api.whatsapp.com,4.3,2813.0,13.0,People typically spend up to 2.5 hours here,03-2025
4fb10ad699fcb561159ab3e1c2c919b9,الأهرام للسفر والسياحة,Jeddah,Jeddah,"Al-Hamra'a، ALAHRAM TRAVEL AND TOURISM P LTD DOOR NO 6, ALSHAWAN BUILDING ,OPP:NCB BANK, ARAFAT STREET, Jeddah 21434, Saudi Arabia",21434,39.1627462,21.53819697,Travel & Lodging,Travel Agencies,Travel agency,Open 24 hours,+966 9200 19190,goejazah.com,3.8,97.0,21.71,People typically spend up to 4 hours here,03-2025
3f8ee59084fb42edba5afb31b41c900e,شركة الرياض للسفر والسياحة,Riyadh Province,Riyadh,"6977 Salah Ad Din Al Ayyubi Rd, Al Malaz, Riyadh 12836, Saudi Arabia",12836,46.72668134,24.66967017,Travel & Lodging,Travel Agencies,Travel agency,Open,+966 9200 22228,alriyadhtravel.com,4.0,367.0,55.17,People typically spend up to 4 hours here,03-2025
20743f7de8f7d97604d78cf6b36a8f57,وكالة الحياة السعيدة للسفر والسياحة المركزالرئيسي,Jeddah,Jeddah,"Ar Rawdah، برج فيجن , الدور التاسع , مكتب 907, Jeddah 23435, Saudi Arabia",23435,39.14069413,21.56573552,Travel & Lodging,Travel Agencies,Travel agency,Open,+966 9200 27373,hl-tourism.com,4.7,1574.0,30.0,People typically spend up to 4 hours here,03-2025
3b92c49fa6386710ef774d83d3a0de3e,Al Shaheen,Riyadh Province,Riyadh,"BAES Shaheen, Ar Rimal, Riyadh 13454, Saudi Arabia",13454,46.79157897,24.95134818,Travel & Lodging,Travel Agencies,Travel agency,Open,+966 11 445 9100,baesystems.com,3.9,141.0,72.4,People typically spend up to 4 hours here,03-2025
695e62f349aa7abb89ddc51ef72b070a,Al Khodari Travel & Tourism Agency - Jubail Branch,Eastern Province,Al Jubail,"Jubail City Center, Al Jubail 35514, Saudi Arabia",35514,49.65424933,27.0130066,Travel & Lodging,Travel Agencies,Travel agency,Open,+966 13 363 0356 ext. 65,alkhodari.travel,3.9,33.0,57.14,People typically spend up to 1 hour here,03-2025
0fbce10d144adbf6ab195f3297f55ae2,Visitors Center - Saudi Aramco,Dammam Metropolitan Area,Dhahran,"Employment Center Access Rd, Saudi Aramco, Dhahran 34462, Saudi Arabia",34462,50.1334062,26.32328468,Travel & Lodging,Tourist Information,Visitor center,Open 24 hours,+966 13 872 2623,saudiaramco.com,4.2,1006.0,35.29,People typically spend up to 30 min here,03-2025
0cec4c637e29673fbb07db40f0e2a2b6,Chacha Travellers,Eastern Province,Al Jubail,"Jubail City Center 8628, Al Jubail 35514, Saudi Arabia",35514,49.65316916,27.0137107,Travel & Lodging,Travel Agencies,Travel agency,Open,+966 59 151 3417,facebook.com,4.7,102.0,36.71,People typically spend up to 2.5 hours here,03-2025
bc4f4af07893edfd041e34d3a820a04f,وكالة المنتج للسفر و السياحة حجز طيران - فنادق - برامج سياحية - رخص دولية - تقديم تأشيرات - خدمات ما بعد البيع,Yanbu,Yanbu,"Ali Bin Abi Talib Road, Al Amarah, Yanbu 46422, Saudi Arabia",46422,38.03541016,24.08283948,Travel & Lodging,Travel Agencies,Travel agency,Open,+966 55 722 0319,wa.me,4.5,84.0,52.43,People typically spend up to 4 hours here,03-2025
1697291c00d0439b4506e8f9f1ecaed4,Shomoe Alrafedain,Dammam Metropolitan Area,Saihat,"2912 King Abdulaziz Rd, Al Muntazah, Saihat 32452, Saudi Arabia",32452,50.03500452,26.49208721,Travel & Lodging,Travel Agencies,Travel agency,Open,+966 50 584 9221,instagram.com,4.2,43.0,57.86,People typically spend up to 3 hours here,03-2025
4259d06bade168ce6ea915ca6e3cb220,Al Khodari Travel & Tourism Agency -Main Office,Dammam Metropolitan Area,Dammam,"Bin Shaflout Commercial Center, King Saud St, Al Dawasir, Dammam 32416, Saudi Arabia",32416,50.10099226,26.44273763,Travel & Lodging,Travel Agencies,Travel agency,Open,+966 13 830 0691,alkhodari.travel,4.1,94.0,48.14,People typically spend up to 3.5 hours here,03-2025
b7419dcc4d276c6f6b3573f593c963f6,مجموعه حسين محمد حجازي,Makkah Province,Makkah,"مخطط 9, Al Firdaous, Ash Shara'i`, Makkah 24269, Saudi Arabia",24269,39.94838358,21.48083536,Travel & Lodging,Travel Agencies,Tour agency,Open 24 hours,+966 59 531 0633,facebook.com,4.7,260.0,33.86,People typically spend up to 2 hours here,03-2025
f1640408e533ad5681c6099224ee41c8,ALHIND Tours & Travels Pvt Ltd - Jeddah,Jeddah,Jeddah,"7721 King Fahd Br Rd, District, Al Baghdadiyah Ash Sharqiyah, Jeddah 22241, Saudi Arabia",22241,39.19054356,21.50207835,Travel & Lodging,Travel Agencies,Travel agency,Open,+966 54 218 4489,agentssa.alhind.com,3.8,12.0,30.86,People typically spend up to 2.5 hours here,03-2025
4c196e1a796be5e5993d505d40821002,Al Habash Travel and Tourism,Makkah Province,Makkah,"Hassan Ibn Thabit, Al Hujun, Makkah 21955, Saudi Arabia",21955,39.8120337,21.43453844,Travel & Lodging,Travel Agencies,Travel agency,Open,+966 12 542 1111,alhabashtravel.com,4.0,349.0,58.14,People typically spend up to 3 hours here,03-2025
ebc796460e1c42966e50cdb8cfc716ea,Alrajhi Aviation الراجحي للطيران Travel and Tourism agency,Jeddah,Jeddah,"Madina Road City Centre, Jeddah 22235, Saudi Arabia",22235,39.17546597,21.53753029,Travel & Lodging,Travel Agencies,Travel agency,Open,+966 12 667 7847,alrajhiaviation.com,3.7,143.0,35.33,People typically spend up to 3 hours here,03-2025
a65f9e3e86536e23fe66224301f388e2,وكالة رحالة الشرق للسفر والسياحة,Dammam Metropolitan Area,Dammam,"حي, Cornish Rd, Al-Hamra'a, Dammam 32421, Saudi Arabia",32421,50.09386095,26.47324425,Travel & Lodging,Travel Agencies,Travel agency,Open,+966 53 186 4446,rahalaalsharg.com,4.7,413.0,63.33,People typically spend up to 2 hours here,03-2025
29656d5ca74a55503c56ae1ff775da46,كنوز السفر للسياحة فرع الزهراء,Jeddah,Jeddah,"Helmi Koutbi, Al Zahra, Jeddah 22246, Saudi Arabia",22246,39.13944583,21.59174268,Travel & Lodging,Travel Agencies,Travel agency,Open,+966 9200 12017,konooztravel.com,4.8,190.0,36.5,People typically spend up to 4 hours here,03-2025
0e87923f0ca0504c953043cfc545e082,Hayyak Lounge,Riyadh Province,Riyadh,"6983 3003 Airport Road, King Khalid International Airport, Riyadh 13458, Saudi Arabia",13458,46.70087577,24.95818262,Travel & Lodging,Travel Agencies,Travel lounge,Open 24 hours,+966 55 085 0112,hayyak.sa,3.7,816.0,58.43,People typically spend up to 20 min here,03-2025
e52e862cf3f1eb8c7b6d65265ac4f742,Jawwal Travel,Riyadh Province,Riyadh,"2271 Prince Muhammad Bin Abdulaziz Road Aknaz Center, 2nd Floor. Office no: 24, Riyadh 12222, Saudi Arabia",12222,46.68397455,24.69730544,Travel & Lodging,Travel Agencies,Travel agency,Open,+966 800 124 0332,jawwaltravel.net,4.7,56.0,48.83,People typically spend up to 4 hours here,03-2025
2db7b74940bac02930b59cdc3a20e088,probasi point travels and tours,Al Wizarat,Riyadh,"Al Wizarat, Riyadh 12626, Saudi Arabia",12626,46.71075834,24.66751853,Travel & Lodging,Travel Agencies,Travel agency,Open,+966 57 176 4346,absglobal.com,3.0,2.0,40.57,People typically spend up to 3 hours here,03-2025
dfe83da8a16ab64b7f985d4524441a78,alsarh,Riyadh Province,Riyadh,"طريق الملك عبدالله،, Ar Rahmaniyyah, Riyadh 12343, Saudi Arabia",12343,46.65256118,24.72348829,Travel & Lodging,Travel Agencies,Tour agency,Open,+966 11 494 1111,alsarh.sa,3.8,1791.0,58.86,People typically spend up to 3 hours here,03-2025
33f5c2415aa31d8ebdaaa5567f0d154d,Saudia Airlines - KKAB,Aseer Province,Khamis Mushait,"7687، 2255، سكن القاعدة الجوية،, Khamis Mushait 62443،, Saudi Arabia",62443،,42.80050926,18.27511678,Travel & Lodging,Travel Agencies,Travel agency,Open,+966 9200 22222,saudia.com,4.3,144.0,67.2,People typically spend up to 2.5 hours here,03-2025
2f085f4bfed19b3632856a86f63dc64d,مكتب الأسواف للحج والعمرة,Riyadh Province,Riyadh,"Abdulmalik Ibn Marwan, Al Olaya, Riyadh 12611, Saudi Arabia",12611,46.69401758,24.67506338,Travel & Lodging,Travel Agencies,Travel agency,Open,+966 50 640 7242,alaswaf.sa,4.0,432.0,33.0,People typically spend up to 4 hours here,03-2025
599b4e3325f3e57be22bb5a84e50ba4c,"‎‎الشاهين للسفر والسياحة ""Al Shahin Travel &Tourism",Riyadh Province,Riyadh,"Al Olaya, Riyadh 12221, Saudi Arabia",12221,46.68997476,24.68097976,Travel & Lodging,Travel Agencies,Travel agency,Open,+966 11 465 1115,flyshahin.com.sa,3.8,70.0,45.5,People typically spend up to 4 hours here,03-2025
5754530d270bda067a33a0652af609a8,Lamar Travel,Riyadh Province,Riyadh,"4002 Al Urubah Rd, Al Wurud, Riyadh 12252, Saudi Arabia",12252,46.68456034,24.71905232,Travel & Lodging,Travel Agencies,Travel agency,Open,+966 11 419 3222,lamar-travel.com,4.0,325.0,63.67,People typically spend up to 2 hours here,03-2025
63e7356a15021c871f5feebb39501ef7,dnata Travel,Dammam Metropolitan Area,Al Khobar,"King Fahd Bin Abdulaziz Rd, Madinat Al Ummal, Unit No 9, 7874, Al Khobar 34441, Saudi Arabia",34441,50.20610033,26.29944693,Travel & Lodging,Travel Agencies,Travel agency,Open,+966 9200 00000,dnatatravel.com,4.0,201.0,60.33,People typically spend up to 2 hours here,03-2025
e672762f44f5f38f9a5ddffd540a0321,المسافر للسفر والسياحة,Al Madinah Province,Madinah,"3372 ابو علقمه عبدالله المزنى, Al Rayah, Madinah 42312, Saudi Arabia",42312,39.59546285,24.48282531,Travel & Lodging,Travel Agencies,Travel agency,Open,+966 9200 00997,almosafer.com,3.6,236.0,66.33,People typically spend up to 30 min here,03-2025
a29e00a9fe4f2b60245a4f55ced228d7,جسر العالم للسفر والسياحه,Makkah Province,Makkah,"Al Madinah Al Munawarah Rd, An Nawwariyyah, Makkah 24215, Saudi Arabia",24215,39.77120498,21.55808143,Travel & Lodging,Travel Agencies,Travel agency,Open,+966 50 144 7370,yourworldbridge.com,4.5,274.0,33.29,People typically spend up to 1.5 hours here,03-2025
d4d4f84db18880a2591d8c15a4547d09,Travel Gate Travel & Tourism,Riyadh Province,Riyadh,"6583-6679 Khalid Ibn Al Walid St, King Faisal Dt., Riyadh 13215, Saudi Arabia",13215,46.76828239,24.75237874,Travel & Lodging,Travel Agencies,Travel agency,Open,+966 11 239 8888,travelgateksa.com,4.5,1036.0,61.29,People typically spend up to 2 hours here,03-2025
abb0ed3eacc56045ef5d3536bb4cd94b,Mazaya Umrah Services Company,Almalik Fahd Dist.,Makkah,"7701 Muhammad Salih Jamal, King Fahd, Makkah 24342, Saudi Arabia",24342,39.77619786,21.39599421,Travel & Lodging,Travel Agencies,Travel agency,Open,+966 54 545 7757,mazaya-group.net,4.4,80.0,39.17,People typically spend up to 3 hours here,03-2025
68032801c4044d8a302154054d1d22f7,Executives Travel & Tourism,Riyadh Province,Riyadh,"Abdallah Ibn Soleiman Al Hamadani, Al Olaya, Riyadh 12241, Saudi Arabia",12241,46.68849914,24.70555462,Travel & Lodging,Travel Agencies,Travel agency,Open,+966 55 526 8042,executivestourism.com.sa,4.2,48.0,79.17,People typically spend up to 30 min here,03-2025
db2698fa2c973946d761024dc7755003,So chalet,Dammam Metropolitan Area,Dammam,"King Saud St, King Fahd Suburb, Dammam 32210, Saudi Arabia",32210,50.00746929,26.42330637,Travel & Lodging,Hotels & Accommodation,Resort hotel,Open,+966 53 049 9055,instagram.com,4.4,560.0,37.29,People typically spend up to 1.5 hours here,03-2025
87c5eed031ab341732a8e5e050f99f76,شركة الأرض والفضاء للترفيه البحري Marine clup,Dammam Metropolitan Area,Dhahran,"King Fahd Road, Dhahran 34745, Saudi Arabia",34745,50.05989922,26.17393523,Travel & Lodging,Cruises & Ferries,Boat rental service,Open,+966 54 731 6771,lsa.com.sa,3.8,192.0,26.29,People typically spend up to 2 hours here,03-2025
b1f8f758305ba840cbfbeb56fa5ff02b,وكالة بسام احمد عفاشة للنقل البحري,Jeddah,Jeddah,"Az Zahrah Al Latifah, Al-Hindawiya, Jeddah 22321, Saudi Arabia",22321,39.18156745,21.46972214,Travel & Lodging,Cruises & Ferries,Cruise line company,Open,+966 56 570 4122,bassamshippingsa.com,4.4,7.0,55.86,People typically spend up to 3 hours here,03-2025
0cdd7736b54349c2c83d787a63704b1d,Saptco,Makkah Province,Makkah,"طريق مكة المدينة المنورة, At Taniem, Makkah 24222, Saudi Arabia",24222,39.79102194,21.49680764,Travel & Lodging,Travel Agencies,Transportation service,Open 24 hours,+966 9200 00877,saptco.com.sa,3.8,2828.0,47.43,,03-2025
7878b44140072bdd4563d4d00f32c981,العودة المميز للسفر والسياحة,Jeddah,Jeddah,"Al Muallifeen St, Al-Rehab, Jeddah 23345, Saudi Arabia",,39.21765117,21.55631968,Travel & Lodging,Travel Agencies,Travel agency,Open 24 hours,+966 56 470 5951,aoudahtravel.com,4.5,213.0,41.29,People typically spend up to 1.5 hours here,03-2025
30ee0954b3b2f7d5f3c38c8d0df5e136,عالية للسفر والسياحة فرع جدة,Jeddah,Jeddah,"2559 Qouraish, Al Bawadi، District, Jeddah 23531, Saudi Arabia",23531,39.15843138,21.59818545,Travel & Lodging,Travel Agencies,Travel agency,Open,+966 12 288 9390,alia.com.sa,3.3,12.0,31.43,,03-2025
8d0a32ccf299b3cb9ed6f7d33b3fd61c,مكتب اسفار للسفر والسياحة,Al Qassim Province,Buraydah,"7871 As Sinaah, An Naziyah, Buraydah 52359, Saudi Arabia",52359,43.95399561,26.34322931,Travel & Lodging,Travel Agencies,Travel agency,Open,+966 16 325 5525,facebook.com,3.8,14.0,38.17,,03-2025
2cae0dc965787d09f8ac849738f48492,dnata Travel,Riyadh Province,Riyadh,"Al Takhassousi، Al Sabaan Plaza, Show Room 16, Riyadh 13215, Saudi Arabia",13215,46.66058625,24.7104936,Travel & Lodging,Travel Agencies,Travel agency,Open,+966 11 419 2480,dnatatravel.com,3.8,104.0,,People typically spend up to 2.5 hours here,03-2025
bdabc2b1ae51251c3293f1f8238af9be,AKBAR ALAM TRAVEL & TOURISM HEAD OFFICE شركة اكبر عالم للسفر و سياحة - مكتب رئيسي,Riyadh Province,Riyadh,"Umar Ibn Abdul Aziz Br Rd, Az Zahra, Riyadh 12812, Saudi Arabia",12812,46.72864584,24.67994894,Travel & Lodging,Travel Agencies,Travel agency,Open,+966 9200 02419,,3.8,74.0,41.71,People typically spend up to 4 hours here,03-2025
92b61127dbeaf6ec62c9ec3c97a232a1,Traveliun Tour Agency,Al Madinah Province,Madinah,"Dist, Al Iskan، Eskan, Madinah 42317, Saudi Arabia",42317,39.6550066,24.44837735,Travel & Lodging,Travel Agencies,Tour agency,Open,+966 56 922 2111,traveliun.com.sa,4.5,295.0,47.67,,03-2025
dc6fd37a3585d308f7d7f2e2e7e57e53,المرشد السياحي أحمد الجعيد Tourist Guide Ahmad Aljuaed,Taif,Taif,"City - Mobile: 00966504265634, 4017 Khalid Bin Al Waliid, ST، Taif 21944, Saudi Arabia",21944,40.4255552,21.27403877,Travel & Lodging,Travel Agencies,Tour operator,Open,+966 50 426 5634,ahmadaljuaed.com,4.8,42.0,24.86,,03-2025
2150ea6348752689025d94805843587c,Saudi Public Transport Co. (SAPTCO),Riyadh Province,Riyadh,"Southern Ring Branch Rd, Al Aziziyah, Riyadh 14512, Saudi Arabia",14512,46.7447299,24.59690077,Travel & Lodging,Travel Agencies,Transportation service,Open 24 hours,+966 800 124 9999,saptco.com.sa,3.9,17763.0,53.71,,03-2025
2b6bd830194c741106a9834300075e79,طيران الشرق الأوسط,Jeddah,Jeddah,"4024 8253 Hael, District, Al Baghdadiyah Al Gharbiyah, Jeddah 22234, Saudi Arabia",22234,39.17579437,21.50636919,Travel & Lodging,Travel Agencies,Travel agency,Open,+966 12 644 9150,mea.com.lb,3.4,291.0,41.43,,03-2025
b7a319650d5acd073700f72843444224,ITL World Travel Management Company,Riyadh Province,Riyadh,"2459 Makkah Al Mukarramah Br Rd, Al Olaya, Riyadh 11693, Saudi Arabia",11693,46.69098758,24.68039598,Travel & Lodging,Travel Agencies,Tour agency,Open,+966 11 293 4999,itlworld.com,4.1,136.0,36.4,,03-2025
089f6afa156e8d04fc7bfbb26726582f,سعد الحويجي للحج والعمرة,Eastern Province,Al Hofuf,"شارع الثليثية, Al Omairiyah, Al Hofuf 36362, Saudi Arabia",36362,49.5826298,25.36456952,Travel & Lodging,Travel Agencies,Travel agency,Open,+966 13 586 6655,,3.1,564.0,58.43,People typically spend up to 1 hour here,03-2025
aca5010c28aa6477567c5daf2a703b75,وكالة آل حاتم للسفر والسياحة,Dammam Metropolitan Area,Saihat,"2866 شارع أبو موسى الأنصاري، الخصاب، 7033 سيهات SA, Saihat 32452, Saudi Arabia",32452,50.03478039,26.48870484,Travel & Lodging,Travel Agencies,Travel agency,Open,+966 50 586 6359,instagram.com,3.7,28.0,54.71,,03-2025
16903b8e78d79dc3063db11d1d5a5e97,SMB Auto Transport,Dammam Metropolitan Area,Al Khobar,"Cooperative Council Rd, Al Khuzama, Al Khobar 34718, Saudi Arabia",34718,50.18460212,26.21597646,Travel & Lodging,Travel Agencies,Transportation service,Open,+966 13 890 7358,smb.sa,3.1,28.0,43.33,,03-2025
fc7f04665df4934e08b8996d7eab87b4,المسافر للسفر والسياحة,Riyadh Province,Al-Kharj,"King Abdullah Road, Al Khuzama, Al-Kharj 16272, Saudi Arabia",16272,47.27796934,24.13871559,Travel & Lodging,Travel Agencies,Travel agency,Open,+966 9200 00997,almosafer.com,3.9,82.0,30.29,,03-2025
742e4b3505f044267921f1a3ee208d3b,flyadeal,Riyadh Province,Riyadh,"King Khalid International Airport, Riyadh 13455, Saudi Arabia",,46.70880742,24.94245995,Travel & Lodging,Travel Agencies,Travel agency,Open 24 hours,+966 9200 00212,flyadeal.com,3.0,7731.0,64.14,People typically spend up to 45 min here,03-2025
57235a9f07c86b9a2cf5e6986f1fb9c7,Qiddiya Experience Center,Riyadh Province,Riyadh,"19823،Qiddyah street, Riyadh 19823, Saudi Arabia",19823,46.28079532,24.56983742,Travel & Lodging,Tourist Information,Visitor center,Open,,qiddiya.com,4.7,167.0,61.6,People typically spend up to 3.5 hours here,03-2025
2096676f79b50f0bb50a2cc830e3c6c7,RUKAM SILVER GEN.CONTRACTING.EST,Eastern Province,Al Jubail,"Unnamed Road, Al Jubail 35523, Saudi Arabia",35523,49.63842323,26.95398723,Travel & Lodging,Travel Agencies,Transportation service,Open,+966 59 265 8602,rukamsilver.com,4.2,9.0,39.67,,03-2025
da6161a5f9e8c9dd8d22e56c129c4930,Flyweek AQIQ Branch,Riyadh Province,Riyadh,"6744 طريق الامام سعود، 6744، 4310 Imam Saud Bin Faisal Rd, Al Malqa, Riyadh 13521, Saudi Arabia",13521,46.62469997,24.79282584,Travel & Lodging,Travel Agencies,Travel agency,Open,+966 9200 03284,flyweektravel.com,3.8,5.0,30.14,,03-2025
e99966b7b4ff48451ad1dc6e1a7543da,Darb Al Watan,Eastern Province,Al Jubail,"ENAB3756، 8599 طريق الملك فهد، حي الدانة، 3756, Al Jubail 35514, Saudi Arabia",35514,49.64750937,27.01334239,Travel & Lodging,Travel Agencies,Transportation service,Open,+966 800 304 0155,darbalwatan.com,4.0,199.0,58.14,,03-2025
6643c12ff7f37dbd3ed4583cfb0d6162,وكاله ذهاب وعودة للسفر والسياحه,Riyadh Province,Riyadh,"King Abdullah Branch Rd, Al Hamra, Riyadh 13217, Saudi Arabia",13217,46.76406794,24.77119361,Travel & Lodging,Travel Agencies,Tour agency,Open 24 hours,+966 54 334 9495,zahabweawdeh.com,4.8,199.0,29.43,,03-2025
0af1b853f06891174ca1c0d42dcf4e9b,الجناح الجوي للسفر والسياحة,Riyadh Province,Riyadh,"حي, Al Bahr Al Moutaousset, Al Aqiq, Riyadh 13515, Saudi Arabia",,46.62552015,24.77929818,Travel & Lodging,Travel Agencies,Travel agency,Open,+966 55 930 1777,airwingtrvl.com,4.5,245.0,58.0,People typically spend up to 4 hours here,03-2025
b7ca74408e184a432856f988bd71c0ff,Golden ARAB And Tourism Agency,Dammam Metropolitan Area,Al Khobar,"Subekha, Al, Rakah St, Al Khobar Al Janubiyah, Al Khobar 34611, Saudi Arabia",34611,50.21004042,26.27331472,Travel & Lodging,Travel Agencies,Travel agency,Open,+966 58 242 9964,goldentrv.com,5.0,6.0,29.71,,03-2025
addd3718d17aa82be422db6097f85053,خبراء للسياحة,Al Madinah Province,Madinah,"Masoud Ibn Rabiah, Adh Dhahirah، المنوره SA, Madinah 42315, Saudi Arabia",42315,39.59172031,24.44972746,Travel & Lodging,Travel Agencies,Tour agency,Open 24 hours,+966 59 952 7010,khobraatravel.com,5.0,34.0,27.14,,03-2025
e32a6e460f69a3cf15cde150e23065e7,khanmoverpackers,Riyadh Province,Riyadh,"khalid bin al waleed, King Faisal Dt., Riyadh 12315, Saudi Arabia",12315,46.76116284,24.76184684,Travel & Lodging,Travel Agencies,Transportation service,Open 24 hours,+966 50 454 8994,khanmoverpackers.com,5.0,2.0,28.86,,03-2025
1fe7f8e0c4b57d415c1d55faf1f6369d,Falcon Fly Travel & Tourism | للسياحة والسفر,Thulaim,Riyadh,"Behind Riyadh Bank, 7175 Thanit Ibn An Numan, Thulaim, 7139, Riyadh 12645, Saudi Arabia",12645,46.71855125,24.64065882,Travel & Lodging,Travel Agencies,Travel agency,Open,+966 53 573 6786,falconflytravels.dialndial.com,5.0,33.0,37.71,,03-2025
95497ee78f3a742bf9a06c59d7fb2d9f,Hackbal International Tours & Travel Company,Thulaim,Riyadh,"Thulaim, Riyadh 12645, Saudi Arabia",12645,46.71758996,24.64084742,Travel & Lodging,Travel Agencies,Travel agency,Open,+966 50 072 5001,hackbaltravels.com,5.0,7.0,27.0,,03-2025
a6e8d2d807a3fd5d76fd55ab6946b0f4,Ma Travel Riyadh Saudi Arabia মা ট্রাভেল,Riyadh Province,Riyadh,"Abrar al Mashi, Manfuhah, Riyadh 12681, Saudi Arabia",12681,46.7238904,24.60125597,Travel & Lodging,Travel Agencies,Travel agency,Open,+966 53 814 0585,matravelksa.com,5.0,3.0,31.86,,03-2025
b4d4ceeaa19d6eb43aa479ad1c70013d,capital travel,Riyadh Province,Riyadh,"l, 6457 Prince Muhammad Ibn Abd Al Aziz, Al Olaya, Riyadh 12241, Saudi Arabia",12241,46.67679188,24.69471239,Travel & Lodging,Travel Agencies,Travel agency,Open 24 hours,+20 10 80071301,thecapitaltravel.com,5.0,17.0,31.0,,03-2025
ec192b41ca338bf3df50136da76d0fac,Time Travel Company for Travel & Tourism,Riyadh Province,Riyadh,"Musa Ibn Nusair St, Al Olaya, Riyadh 12241, Saudi Arabia",12241,46.68764739,24.70721859,Travel & Lodging,Travel Agencies,Travel agency,Open,+966 59 179 0942,timetravelgroups.com,4.6,21.0,28.5,,03-2025
820e3b33b22db2b93117a2daad2f8006,رحلات الدبلوماسي-Diplomatic Travels,Riyadh Province,Riyadh,"Prince Sultan Bin Abdulaziz Rd, Al Olaya, Riyadh 12311, Riyadh 12221, Saudi Arabia",12221,46.69060752,24.69181796,Travel & Lodging,Travel Agencies,Travel agency,Open,+966 54 702 7458,mosaic-travels.com,5.0,30.0,24.2,,03-2025
a408df7aa8b18d34b3d8f94ab528e094,مجموعة العنان للسفر و السياحة Alanan travel group,Riyadh Province,Riyadh,"Saad Ibn Abi Waqqas, An Nasim Al Gharbi, Riyadh 14231, Saudi Arabia",14231,46.80793325,24.73939472,Travel & Lodging,Travel Agencies,Travel agency,Open,+966 9200 00121,alanantravel.com,4.6,52.0,27.17,,03-2025
f416d2833d5fe91d72d07113c0f2be91,أجنحة الفرسان للسفر والسياحة,Riyadh Province,Riyadh,"Hassan Ibn Thabet, An Nasim Al Gharbi, Riyadh 14241, Saudi Arabia",14241,46.82677645,24.73803137,Travel & Lodging,Travel Agencies,Travel agency,Open,+966 54 367 2479,ajnhtalfursan.com,4.4,52.0,35.0,,03-2025
7a3f830068d82d1902bb36402e201a1e,Itac travel - ايتاك ترافل,Riyadh Province,Riyadh,"Al Khalil Ibn Ahmad, Badr, Riyadh 11461, Saudi Arabia",11461,46.69265843,24.54264591,Travel & Lodging,Travel Agencies,Travel agency,Open 24 hours,+966 57 064 1027,itactravel.com,4.8,23.0,25.67,,03-2025
4828271ef7c9d4d3db8a20b8891d667c,بصمة للسفر والسياحة,Riyadh Province,Riyadh,"RHOD3058، 7415 الامير سلطان ابن عبدالعزيز, Al Olaya، 3058, Riyadh 12222, Saudi Arabia",12222,46.6917847,24.69284388,Travel & Lodging,Travel Agencies,Tour agency,Open,+966 9200 13294,busmahtravel.com,4.9,40.0,32.71,,03-2025
3a6bcecaf31e16dfda49d18808668367,Travel & Tourism Nesmat Aldeem نسمات الديم للسفر والسياحة,Riyadh Province,Riyadh,"Prince Saad Ibn Abdulrahman Al Awal Rd, East Naseem Dist, Riyadh 14245, Saudi Arabia",14245,46.84726652,24.71455022,Travel & Lodging,Travel Agencies,Travel agency,Open,+966 53 216 2735,nadtraveltourism.com,5.0,3.0,31.29,,03-2025
77d428a1599729839537982a93ce6c33,شركة مدار المجره للسفر والسياحه,Riyadh Province,Riyadh,"Eastern Ring Rd, Ar Rabwah, Riyadh 12835, Saudi Arabia",12835,46.76938589,24.69349257,Travel & Lodging,Travel Agencies,Travel agency,Open 24 hours,+966 55 993 9209,givc-travel.com,5.0,5.0,30.0,,03-2025
2282667240bf616b3a187c2ba68db2e2,Eathar Holidays Azeezia Riyadh شركة إيثار للعطلات للسفر والسياحة,Riyadh Province,Riyadh,"Al Aziziyah, Riyadh 11012, Saudi Arabia",11012,46.77080614,24.59514431,Travel & Lodging,Travel Agencies,Travel agency,Open,+966 50 542 4486,eatharhoildays.com,4.9,31.0,35.43,,03-2025
e5f127fad7adbc6366b7366a804876d2,THE GOLDEN TRAVEL MADINAH,Al Madinah Province,Madinah,"6679 Sultanah St, Masjid Ad Dar, Madinah 42313, Saudi Arabia",42313,39.60297627,24.48600072,Travel & Lodging,Travel Agencies,Travel agency,Open,+966 54 554 8290,facebook.com,4.8,12.0,25.71,,03-2025
bfb427c7b71f4db7076ed090d6fd0cc4,Madinah Air travels limited,Al Madinah Province,Madinah,"Al Mughaishila, Al Mughaisilah, Madinah 42315, Saudi Arabia",42315,39.60349469,24.45825884,Travel & Lodging,Travel Agencies,Travel agency,Open,+966 55 410 7273,,5.0,24.0,54.86,People typically spend up to 4 hours here,03-2025
654ebc71711522c5250452484024a4f1,Akbar Travels Of India,Riyadh Province,Riyadh,"Al Bathaa, Al Futah, Riyadh 12632, Saudi Arabia",,46.71466245,24.63987985,Travel & Lodging,Travel Agencies,Travel agency,Open,+966 11 412 2585,sa.akbartravels.com,3.9,253.0,45.71,People typically spend up to 3 hours here,03-2025
6faa015da137ac6ea0f2c1df1a7a6e1b,المدثر للعمرة والزيارة,Riyadh Province,Riyadh,"Manfuhah, البرج، Riyadh 12653, Saudi Arabia",12653,46.71781421,24.61348896,Travel & Lodging,Travel Agencies,Tour agency,Open 24 hours,+966 54 313 0360,almudathier.com,4.5,107.0,33.29,,03-2025
3a56e6978486cee3e1695fa03f9043c0,المسافر تراڤل للسفر والسياحة,Taif,Taif,"شارع عشرون, Ashuhada Aljanubiyyah, Taif 21944, Saudi Arabia",21944,40.41441345,21.26472758,Travel & Lodging,Travel Agencies,Tour agency,Open,+966 54 193 4092,almosafertravell.com,4.0,6.0,23.14,,03-2025
d076b2792e60b1e509e032eebdf04dfc,Ral,Tabuk Principality,Tabuk,"Prince Abdulrahman Bin Faisal Rd, Sultanah, Tabuk 47311, Saudi Arabia",,36.58251656,28.40203271,Travel & Lodging,Travel Agencies,Tour agency,Open,+966 54 698 2604,ral11.com,4.5,26.0,68.0,People typically spend up to 45 min here,03-2025
7f68b8c5526000b494533a36a1276394,house shifting Moving service,Dammam Metropolitan Area,Al Khobar,"20th St, Al Khobar Al Shamalia, Al Khobar 34217, Saudi Arabia",34217,50.21350371,26.2822369,Travel & Lodging,Travel Agencies,Transportation service,Open 24 hours,+966 50 935 2371,expartiates.com,5.0,1.0,31.57,,03-2025
26709768a596209b26beedd191f07f7b,AL-RIHAN TRANSPORT,Dammam Metropolitan Area,Dammam,"Sea port, Al Itisalat, Dammam 32257, Saudi Arabia",32257,50.08204616,26.41333117,Travel & Lodging,Travel Agencies,Transportation service,Open 24 hours,+966 53 242 0935,alrihan.com,1.5,2.0,25.14,,03-2025
250361a02d637531ac2bd944d3416975,سطحه هيدروليك,Hail Province,Hail,"41.6769680), Hail 55427, Saudi Arabia",55427,41.6740209,27.54584325,Travel & Lodging,Travel Agencies,Transportation service,Open 24 hours,+966 53 000 4529,sathaa-hydraulic.com,5.0,61.0,32.86,,03-2025
5cdc1b7497616914d824a799db80140b,سفريات البسام الدولية (الاردن _ سوريا) بالقصيم,Al Qassim Province,Buraydah,"7848 King Abdulaziz Rd, 3631, An Naziyah، 7848 طريق الملك عبد العزيز، النازية، بريدة 52359 3631،, Buraydah 52359, Saudi Arabia",52359,43.95714939,26.34293019,Travel & Lodging,Travel Agencies,Travel agency,Open,+966 50 488 9005,,3.9,108.0,53.14,People typically spend up to 2.5 hours here,03-2025
d1960c8ab3955f87858da919ac7371df,Makkah Easy Cab,Al Madinah Province,Madinah,"2778 King Abdullah Branch Rd, Al Usayfirin, Madinah 42315, Saudi Arabia",42315,39.58812666,24.45473928,Travel & Lodging,Travel Agencies,Transportation service,Open 24 hours,+966 54 178 1122,makkaheasycab.com,5.0,9.0,27.86,,03-2025
06c4c89a20b8e98d4b3cf31382e2b107,محطة حافلات المدينة (المطار - الحرم النبوي) Madinah Shuttle Bus to Haram,Al Madinah Province,Madinah,"Madinah 42342, Saudi Arabia",42342,39.71377973,24.55311525,Travel & Lodging,Travel Agencies,Transportation service,Open 24 hours,+966 56 258 3305,twitter.com,4.9,10.0,26.57,,03-2025
46c01aaefdaa77f91e90ff35cc8ff64a,Noorha Transport,Dammam Metropolitan Area,Al Khobar,"26th St, Madinat Al Umal, Al Khobar 34441, Saudi Arabia",34441,50.19920129,26.30146588,Travel & Lodging,Travel Agencies,Transportation service,Open 24 hours,+966 56 247 1583,noorhatransport.com,5.0,15.0,35.29,,03-2025
431bd619bc628bb2c5656573407b616d,GH Transport Bulk Division,Dammam Metropolitan Area,Dammam,"King Abdul Aziz Seaport, Dammam 32211, Saudi Arabia",32211,50.18871677,26.45139257,Travel & Lodging,Travel Agencies,Transportation service,Open 24 hours,+966 50 389 3501,ghtransport.com,2.0,1.0,33.29,,03-2025
661aae94f3f232fd7e75bc33e5865f2a,Hadico transportation Co,Dammam Metropolitan Area,Dammam,"3319, 6349, Dammam 32212, Saudi Arabia",32212,50.17907246,26.43032311,Travel & Lodging,Travel Agencies,Transportation service,Open,+966 13 857 3333,hadico.com.sa,3.0,4.0,29.17,,03-2025
dddbd54b75c854191f21f49b48f20e0f,Akbar Travels & Tourism Co,Al Madinah Province,Madinah,"Center,Office No 8&9, Abu Bakar Siddique Road, Sulatana, Al Fateh, Madinah 42312, Saudi Arabia",42312,39.59576683,24.48275316,Travel & Lodging,Travel Agencies,Travel agency,Open,+966 55 517 7351,akbartravels.com,4.1,10.0,34.29,,03-2025
c98c61bb636bfdbe4c9892131449d1d3,FALCON RENT A CAR,Jeddah,Jeddah,"Near National Bank, Al Andalus Street, Second Floor, Rawan Plaza, Jeddah 72675, Saudi Arabia",72675,39.16713518,21.51141444,Travel & Lodging,Travel Agencies,Transportation service,Open 24 hours,+966 56 963 0443,falcongroupksa.com,5.0,6.0,22.71,,03-2025
3e3d53b07f942ebb83483c6273d53ac7,Sky Rays Global Travel and Tourism,Dammam Metropolitan Area,Dammam,"SEIKO Building, King Saud St, Near, 15th street, Dammam 31492, Saudi Arabia",31492,50.09752414,26.44222694,Travel & Lodging,Travel Agencies,Travel agency,Open,+966 55 806 2636,skyraysglobal.com,4.9,7.0,21.71,,03-2025
b155a104bc1025095d379e56dd4937ae,Comfort Travels Dammam,Dammam Metropolitan Area,Dammam,"Near Rummaan Restaurant, Andra Gully, Prince Saud ibn Jalawy Street, Dammam 32416, Saudi Arabia",32416,50.09616913,26.44377879,Travel & Lodging,Travel Agencies,Travel agency,Open,+966 56 549 1081,comforttravels.in,4.8,9.0,21.29,,03-2025
fa736fa737e98123960d3077658fe22c,سما للسياحة والسفر,Riyadh Province,Riyadh,"Al Malaz, Riyadh 12836, Saudi Arabia",12836,46.73310739,24.6714428,Travel & Lodging,Travel Agencies,Airline ticket agency,Open,+966 11 520 6867,samatravel-group.com,4.2,38.0,35.83,,03-2025
550c23076e9ed95586ce7b8a7f985f65,Northwest BUS,Jeddah,Jeddah,"M4QV+2GF, Jeddah 23635, Saudi Arabia",23635,39.1412325,21.68756722,Travel & Lodging,Travel Agencies,Transportation service,Open 24 hours,+966 9200 20590,nwbus.sa,2.8,5.0,39.71,,03-2025
104104e5e31db769930cfa460d961870,REEM TRAVEL,Tabuk Principality,Tabuk,"NEAR ENJAZ BANK, MINI STREET, Tabuk 47914, Saudi Arabia",47914,36.55849896,28.38311549,Travel & Lodging,Travel Agencies,Travel agency,Open,+966 54 618 6925,facebook.com,3.8,29.0,29.43,,03-2025
87806b756b9a607222ad4962e3dadab3,SRA,Jeddah,Jeddah,"Qouraish, JDBA6081, Jeddah 23531, Saudi Arabia",23531,39.15848551,21.59814149,Travel & Lodging,Travel Agencies,Travel agency,Open,+966 9200 08639,sra-sa.com,4.8,14.0,29.0,,03-2025
0bb39d7d8a5201dba3c2b76c917b52d4,New Travel,Riyadh Province,Riyadh,"2776 Al Taif, Manfuhah, Near 6900 Al Taif, 2776, Manfuhah, Riyadh 12685 Near 6900, Riyadh 12685, Saudi Arabia",12685,46.72440614,24.59613282,Travel & Lodging,Travel Agencies,Travel agency,Open,+966 53 821 9820,sites.google.com,4.3,6.0,67.71,,03-2025
d3aeba533bee8f19e1105baf11239c90,Bus rental 30 seats & 14 seats,Riyadh Province,Riyadh,"12725, Riyadh 00966, Saudi Arabia",00966,46.65950462,24.65517126,Travel & Lodging,Travel Agencies,Transportation service,Open 24 hours,+966 54 155 9287,facebook.com,4.3,11.0,33.57,,03-2025
b1290ffa9ac6adf87fbd1a71b8ffc80b,Northwest BUS,Riyadh Province,Riyadh,"Al Aziziyah, Riyadh 14512, Saudi Arabia",14512,46.74573229,24.59669282,Travel & Lodging,Travel Agencies,Transportation service,Open 24 hours,+966 9200 20590,nwbus.sa,2.3,24.0,27.14,,03-2025
6ce9e94b2699e99d8c8d0886506dabde,Akbar Travels Umrah Services,Dammam Metropolitan Area,Dammam,"8313 3242 Prince Mohammed St, Al Souq, Dammam 32242, Saudi Arabia",32242,50.09507213,26.44015277,Travel & Lodging,Travel Agencies,Travel agency,Open,+966 13 849 9166,akbartravels.com,4.2,10.0,42.29,,03-2025
19c78854072f105d8a1b4e4ec6b7d62f,Al-Nisar Umrah & Travels Services,Dammam Metropolitan Area,Dammam,"Prince Mohammed St, Al Souq, Dammam 34232, Saudi Arabia",34232,50.09544476,26.44038517,Travel & Lodging,Travel Agencies,Travel agency,Open,+966 53 628 2486,nisarumrahtravels.com,3.8,17.0,34.29,,03-2025
33c25bf48a1e2fed035f48d7d3e5cf20,Wejhah for travel and tourism,Dammam Metropolitan Area,Dammam,"King Saud St, Al Mazruiyah, Dammam 32414, Saudi Arabia",32414,50.11888258,26.44239947,Travel & Lodging,Travel Agencies,Travel agency,Open 24 hours,+966 13 835 8350,wejhah.com,4.8,471.0,32.83,,03-2025
c1924e46c61689efa12c3c2a1542b915,Ocean Cross Travel & Tours,Dammam Metropolitan Area,RAKHA,"Behind Deerah, Al Rakah Al Janubiyah, RAKHA 31952, Saudi Arabia",31952,50.19963088,26.36461936,Travel & Lodging,Travel Agencies,Travel agency,Open,+966 53 889 3994,oceancrosstravel.com,5.0,17.0,30.83,,03-2025
e35e679dc7ded4589a2de36fd8a270ab,Akbar Travels and Tourism Co.,Riyadh Province,Riyadh,"7134 Prince Turki Bin Abdulaziz Althani St, Al Muruj, 2765, Riyadh 12281, Saudi Arabia",12281,46.65572324,24.75633422,Travel & Lodging,Travel Agencies,Travel agency,Open,+966 11 404 0089,akbartravels.com,4.6,7.0,41.29,,03-2025
7174c59ce5dd34d019b754acd682d07d,Rahla - Al Etimaad Travel and Tourism,Jeddah,Jeddah,"Al Sahafa St, Aziziyah، Near Nisha Uniforms & Fashion, Jeddah 23342, Saudi Arabia",23342,39.20588838,21.55494815,Travel & Lodging,Travel Agencies,Travel agency,Open,+966 53 449 2533,,4.7,47.0,51.57,People typically spend up to 1.5 hours here,03-2025
7a7e557c090e79b64893a929051bc1ac,Shining Tours,Riyadh Province,Riyadh,"District, Street number 28 Olaya, Riyadh 12211, Saudi Arabia",12211,46.68407962,24.68698669,Travel & Lodging,Travel Agencies,Tour agency,Open 24 hours,+966 50 923 2999,shiningtours.sa,5.0,5.0,27.29,,03-2025
b7b08c7d766542f1e5ab0ff9fdc6e6da,SAT Bus Agent- Al Aflaj | وكيل حافلات سات- الأفلاج,Riyadh Province,Layla,"10, Layla 16823, Saudi Arabia",16823,46.72663362,22.31492044,Travel & Lodging,Travel Agencies,Transportation service,Open 24 hours,+966 9200 18221,satrans.com.sa,5.0,3.0,27.0,,03-2025
5753f0a65a80f803969a8dd5f74a762f,Pk Cargo & Travel Agency,Riyadh Province,Riyadh,"3754 Al Hussein Ibn Ali, 7682, Almasiaf, 7682, Riyadh 12468, Saudi Arabia",12468,46.68322061,24.76859595,Travel & Lodging,Travel Agencies,Travel agency,Open 24 hours,+966 11 400 2084,pkcargo.com,4.1,8.0,24.29,,03-2025
d54a29e247fdf1301a3dee635a9414b1,سطحة الرياض لنقل السيارات,Riyadh Province,Riyadh,"Al Sina'iyah, Riyadh 12872, Saudi Arabia",12872,46.75252313,24.63713872,Travel & Lodging,Travel Agencies,Transportation service,Open 24 hours,+966 56 236 5109,towingksa.com,4.7,64.0,31.43,,03-2025
ef2a6477961e8921d802f51502967f43,Alrehlaalmoyasarahالرحلةالميسرةللعمرةوالزيارةللنقل الجماعي العزيزية الرياض,Riyadh Province,Riyadh,"النقل الجماعي, Al Aziziyah, Riyadh 12211, Saudi Arabia",12211,46.74559718,24.59652278,Travel & Lodging,Travel Agencies,Transportation service,Open,+966 58 076 0933,facebook.com,4.3,18.0,26.71,,03-2025
aefa5ec364990e72499936784dbc88f4,Flymond Travels And General Services,Dammam Metropolitan Area,Dammam,"Al Dawasir, Dammam 32416, Saudi Arabia",32416,50.09508921,26.44381784,Travel & Lodging,Travel Agencies,Travel agency,Open,+966 54 158 3872,flymondgroup.com,5.0,3.0,39.57,,03-2025
9ca60384a705a348b36753ce2f9d2db8,سفريات البسام للنقل الدولي,Riyadh Province,Riyadh,"3178, Riyadh 14512, Saudi Arabia",14512,46.7462232,24.59896369,Travel & Lodging,Travel Agencies,Travel agency,Open,+966 55 207 9627,,3.5,367.0,49.0,People typically spend up to 1 hour here,03-2025
ccaff3927390a5ab6e4c679e48fa6c06,Space Travel And Tourism,Tuwik,Al-Muzahmiyya,"Prince Salman Ibn Abdulaziz Rd, Tuwik, Al-Muzahmiyya 19655, Saudi Arabia",19655,46.28148237,24.47369225,Travel & Lodging,Travel Agencies,Travel agency,Open,+966 11 523 6606,fursan.com.sa,4.2,39.0,49.71,,03-2025
f0a4d6f51b2a15e195d7985942883c32,البرية العربية لنقل السيارات,Dammam Metropolitan Area,Dammam,"4340, 8689, King Fahd Suburb, Dammam 32313, Saudi Arabia",32313,50.00622728,26.39616442,Travel & Lodging,Travel Agencies,Transportation service,Open,+966 9200 28833,naqelat.net,3.6,554.0,37.29,,03-2025
2f83ad875de1d30d06ab44276d1529af,سفريات ايس,Dammam Metropolitan Area,Al Khobar,"Prince Faisal Bin Fahd Road, Al Hizam Al Akhdar, Al Khobar 34433, Saudi Arabia",34433,50.2060025,26.30306133,Travel & Lodging,Travel Agencies,Travel agency,Open,+966 13 882 4444,ace-travel.com,3.9,24.0,32.43,,03-2025
35d724b616285c0ea4dafeabb195d760,Nas Airline,Jeddah,Jeddah,"Palestine, Mishrifah, Jeddah 23331, Saudi Arabia",23331,39.18245557,21.53075136,Travel & Lodging,Travel Agencies,Travel agency,Open,+966 56 375 7279,flynas.com,3.3,273.0,30.0,,03-2025
e0827f094fff1b855f9c7338a21b87fe,Dammam Bus Station - SAT | محطة حافلات الدمام - سات,Dammam Metropolitan Area,Dammam,"8063 11th St, As Salam, Dammam 32416, Saudi Arabia",32416,50.10423584,26.45129844,Travel & Lodging,Travel Agencies,Transportation service,Open 24 hours,+966 9200 18221,satrans.com.sa,4.1,118.0,35.71,,03-2025
dbe0169dfd141c5702c3fb5c4ceb43b9,Fishing boat رحلات بحرية,Sudayr,Al Jubail,"Al - Shati, Fanateer, Al Jubail 35811, Saudi Arabia",35811,49.56633969,27.13394263,Travel & Lodging,Cruises & Ferries,Boat tour agency,Open 24 hours,+966 54 399 3991,snapchat.com,5.0,54.0,28.71,,03-2025
f43a243955d33c5ffbdad5fe26735dfb,صناع الحلول الدولية للخدمات اللوجستية | SM Logistics,Dammam Metropolitan Area,Dammam,"King Abdul Aziz Seaport, Dammam 32213, Saudi Arabia",32213,50.17703137,26.42601763,Travel & Lodging,Travel Agencies,Transportation service,Open,+966 53 919 4689,smilogistics.com,4.9,11.0,66.29,,03-2025
fa586116fafafafdf5bbb5d13d11c645,Alanan travel group,Al Madinah Province,Madinah,"حي الاسكان، DMAB8303، 8303 الامير عبدالمجيد ابن عبدالعزيز، 2280, Madinah 42317, Saudi Arabia",42317,39.63467743,24.46547713,Travel & Lodging,Travel Agencies,Travel agency,Open,+966 9200 00121,alanantravel.com,4.5,67.0,29.5,,03-2025
852ff80e490168fcfb888759a47feaf4,الحويزي للسفر والسياحة,Aseer Province,Khamis Mushait,"3776 1, 9044, Khamis Mushait 62463, Saudi Arabia",62463,42.72718352,18.30210019,Travel & Lodging,Travel Agencies,Travel agency,Open,+966 55 990 2283,,4.6,47.0,40.33,People typically spend up to 4 hours here,03-2025
a8a035d2021a76ea290b61924c3a5ac1,وكالة ايام المسافر للسفر والسياحة,Aseer Province,Khamis Mushait,"شارع أوس بن معاذ, Al Khaldiyah, Khamis Mushait 62461, Saudi Arabia",62461,42.72557012,18.30567169,Travel & Lodging,Travel Agencies,Travel agency,Open,+966 55 835 9454,facebook.com,4.2,27.0,40.57,,03-2025
d2a0e73cdce4a7ac3aa390ceefbe3434,الفلك للسفر والسياحة AlFalak Travel and Tourism,آل قصال,Khamis Mushait,"Imam Muhammad Ibn Saud, Al Irq Al Janubi, Khamis Mushait 62461, Saudi Arabia",62461,42.72822061,18.3021497,Travel & Lodging,Travel Agencies,Travel agency,Open,+966 58 081 8595,alfalaktravel.com,3.4,7.0,36.0,,03-2025
62a944401da7868300b8bc07f6c763fb,WAKALA ABRAJ ALSHAMOUGH TRAVEL & TOURS,Riyadh Province,Riyadh,"front of bawardi masjid, Soufian Ibn Aouf, Al Aziziyah, Riyadh 14514, Saudi Arabia",14514,46.7714008,24.58422329,Travel & Lodging,Travel Agencies,Travel agency,Open,+966 50 480 1786,abraj-shamough.com,1.5,4.0,24.29,,03-2025
013d4594f7f95465218f80de6f8e98be,وكالة ابو فارس للسياحة والسفر,Riyadh Province,Riyadh,"Beside, Al Khalil Ibn Ahmad, Samnan, Riyadh 14724, Saudi Arabia",14724,46.69261133,24.54261222,Travel & Lodging,Travel Agencies,Travel agency,Open,+966 57 099 7174,abufaris.net,4.2,6.0,,People typically spend up to 2.5 hours here,03-2025
0b1e8c9fe5766d66151cf1d1ba92b027,Rehlat almumayyaz,Tuwaiq,Riyadh,"شارع الذهبي, Tuwaiq, Riyadh 14923, Saudi Arabia",14923,46.54421014,24.57953566,Travel & Lodging,Travel Agencies,Travel agency,Open,+966 58 197 6010,,4.9,47.0,35.86,People typically spend up to 4 hours here,03-2025
ff4a9a63ff0e12d18e5c6186f2cb5c66,SAT Bus Agent- Wadi Al Dawasir | وكيل حافلات سات- وادى الدواسر,حي اللدام الجنوبي,Wadi ad-Dawasir,"Wadi ad-Dawasir 18412, Saudi Arabia",18412,44.7955298,20.4657319,Travel & Lodging,Travel Agencies,Transportation service,Open,+966 9200 18221,satrans.com.sa,2.9,9.0,27.43,,03-2025
5d2497c2715d30fb023b44d100881db9,Hujjaj Transport,Makkah Province,Makkah,"Nuzha, 12 binte fatima Az Zahir, Makkah 21936, Saudi Arabia",21936,39.79039444,21.44282743,Travel & Lodging,Travel Agencies,Transportation service,Open 24 hours,+966 57 818 9937,hujjajtransport.com,5.0,3.0,27.86,,03-2025
d5447c2437b0636af5e014fbb900a930,Royal Travels Dammam,Dammam Metropolitan Area,Dammam,"Al Adamah, Dammam 32242, Saudi Arabia",32242,50.10375353,26.43665175,Travel & Lodging,Travel Agencies,Travel agency,Open,+966 50 800 5292,royaltravels.com,4.2,23.0,45.57,,03-2025
1506069d2621d772d769ca3d5f9fdbbc,SAT Bus Office- Sabya | مكتب حافلات سات- صبيا,Sabya,Sabya,"Al Nahdah, Sabya 85541, Saudi Arabia",85541,42.64468713,17.17142382,Travel & Lodging,Travel Agencies,Transportation service,Open,+966 9200 18221,satrans.com.sa,3.2,10.0,21.57,,03-2025
627f13ded3b9ae8f53b7cf0c46ef888b,BPL Cargo & Courier -Hafer Al Batin,Eastern Province,Hafar Al Batin,"Abu Musa Al Ashari, Hafar Al Batin 39923, Saudi Arabia",39923,45.97253795,28.43553548,Travel & Lodging,Travel Agencies,Transportation service,Open,+966 54 290 7293,bplcargo.com,4.0,3.0,32.43,,03-2025
40cbd6f21d6f1e2433ab9e468431a57a,ابو سرهد,Sakaka,Sakaka,"9526 طريق الملك عبدالعزيز, Al-Ma'aqlah, Sakaka 72341, Saudi Arabia",72341,40.20123566,29.97851135,Travel & Lodging,Travel Agencies,Travel agency,Open 24 hours,+966 55 185 6123,,3.4,52.0,22.33,People typically spend up to 45 min here,03-2025
8d520ac18ffde8de6d49231ec445ff00,وكاله طيار للسفر والسياحة,Eastern Province,Hafar Al Batin,"Makkah Al Mukarramah, Al Aziziyah, Hafar Al Batin 31991, Saudi Arabia",31991,45.96898954,28.43848877,Travel & Lodging,Travel Agencies,Travel agency,Open,+966 54 501 9964,tayarr.com,4.6,89.0,44.43,,03-2025
589c1b35dba8104f829fcd71692657e5,Golden Aseel Travel & Tourism,Makkah Province,Makkah,"7149 King Abdul Aziz Rd, Ajyad, Makkah 24231, Saudi Arabia",24231,39.82997111,21.42146811,Travel & Lodging,Travel Agencies,Travel agency,Open,+966 53 336 2117,instagram.com,5.0,3.0,32.33,,03-2025
76668ae170b6fa491a5d88ab39db7b99,Global travelntourism co,Riyadh Province,Riyadh,"Al Bathaa, Al Futah, Riyadh 11341, Saudi Arabia",11341,46.71327813,24.64466949,Travel & Lodging,Travel Agencies,Travel agency,Open,+966 56 985 3924,globaltravelntourism.com,5.0,2.0,35.33,,03-2025
55a391f24f4758364a37f1d59efac567,توصيل البحرين - Bahrain Transportation,Dammam Metropolitan Area,Al Khobar,"طريق مجلس التعاون الفرعي, Al Jisr, Al Khobar 34714, Saudi Arabia",34714,50.20747131,26.21855478,Travel & Lodging,Travel Agencies,Transportation service,Open 24 hours,+966 55 728 0315,jasarplus.com,5.0,98.0,24.86,,03-2025
ad5b9994cc8c606fec580a80aaed4211,توصيل ألى البحرين,Dammam Metropolitan Area,Al Khobar,"Al Jisr, Al Khobar 34714, Saudi Arabia",34714,50.20013059,26.21434438,Travel & Lodging,Travel Agencies,Transportation service,Open 24 hours,+966 54 354 4992,hopp.bio,5.0,5.0,29.43,,03-2025
df9d99f5bc7ab7c08f1913bbd4bfc0e4,سحاب العالم للسفر والسياحة,Jazan Province,Jazan,"Al Mutalla St, Al Jabal, Jazan 82715, Saudi Arabia",82715,42.5506247,16.8944559,Travel & Lodging,Travel Agencies,Tour agency,Open,+966 53 531 6584,sahabalalam.sa,4.7,21.0,29.0,,03-2025
c45997652b10b0f8bf89947bebecbb38,NWBUS,Hail Province,Hail,"7180 Najd, Al Mahattah, HADB5623, 5623, Hail 55424, Saudi Arabia",55424,41.69121343,27.51771327,Travel & Lodging,Travel Agencies,Transportation service,Open 24 hours,+966 9200 20590,nwbus.sa,4.4,12.0,35.29,,03-2025
d91963220ae27aa10f17ce320b206c87,Al Duwadimi.,Riyadh Province,Al Duwadimi,"2882 Zayn Al Abidin, Al Fisalyyah, 8136, Al Duwadimi 17441, Saudi Arabia",17441,44.37884672,24.50096037,Travel & Lodging,Travel Agencies,Travel agency,Open,+966 57 210 1738,,4.0,3.0,40.57,People typically spend up to 3.5 hours here,03-2025
6b5dbf7ce459a259effdefbabaed38af,ASK MOSAFER TRAVELS AND TOURISM,Riyadh Province,Al Duwadimi,"As, 8136 2882 Zayn Al Abidin, Al Fisalyyah, Al Duwadimi 17441, Saudi Arabia",17441,44.37891885,24.50082154,Travel & Lodging,Travel Agencies,Travel agency,Open,+966 57 210 1738,askmosafertravels.com,5.0,5.0,31.86,,03-2025
07695d09d004909ee3009d69abe57f38,سطحه الرياض شرق المونسية اليرموك القادسية,Riyadh Province,Riyadh,"Al Munsiyah, Riyadh 12211, Saudi Arabia",12211,46.78515569,24.82093885,Travel & Lodging,Travel Agencies,Transportation escort service,Open 24 hours,+966 56 592 7308,g.co,5.0,10.0,31.29,,03-2025
6eb061517a33f3339bf664ee232460cb,البركة للنقل الدولي الرياض,Riyadh Province,Riyadh,"العزيزية،, Riyadh Saudi Arabia",,46.74581663,24.59706224,Travel & Lodging,Travel Agencies,Travel agency,Open 24 hours,+966 11 438 9561,albarakavip.site123.me,3.4,1059.0,29.29,People typically spend up to 2.5 hours here,03-2025
a4c338ad3df9e768b6a9cd24f5bed8dc,Horizon destination travels,Eastern Province,Khafji,"Prince Naif Rd, Alluluah, Khafji 39254, Saudi Arabia",39254,48.49286991,28.42022259,Travel & Lodging,Travel Agencies,Travel agency,Open,+966 54 451 7065,horizonsaudi.com,5.0,3.0,34.57,,03-2025
15e5eacc51f7b496fc6a1cf7102802b9,FLYZED TRAVEL & TOURISM,Dammam Metropolitan Area,Dammam,"14th Street, Al Dawasir, Dammam 32416, Saudi Arabia",32416,50.09831269,26.44362483,Travel & Lodging,Travel Agencies,Travel agency,Open,+966 56 893 6164,fly-zed.com,4.4,8.0,31.0,,03-2025
c013b8b7f20ab1633dd0786f9081f1d7,وكالة ورود للسفر والسياحة,Makkah Province,Rabigh,"Al Suq, Rabigh 25754, Saudi Arabia",25754,39.03189424,22.80175648,Travel & Lodging,Travel Agencies,Travel agency,Open 24 hours,+966 55 871 8560,facebook.com,4.6,10.0,17.86,,03-2025
e9a3f4b5e4302518834b681f9e4578ff,Almaziad Company for Transportation & Cars Towung,Dammam Metropolitan Area,Dammam,"Dhahran Jubail Expy, Al Dabab, Dammam 32261, Saudi Arabia",32261,50.06044936,26.41690739,Travel & Lodging,Travel Agencies,Transportation service,Open,+966 9200 00854,almaziad.com,3.6,21.0,41.71,,03-2025
eb2f97bf219a351a45c74dfda0aaf22a,AMG CAMP-2 Camping and Catering Services,Jazan Province,AL-MNSALA,"Unnamed Road, AL-MNSALA 87532, Saudi Arabia",87532,42.3782605,17.38645763,Travel & Lodging,Vacation Rentals & RV,Camping cabin,Open,+966 50 721 6853,,3.5,73.0,43.0,People typically spend up to 4 hours here,03-2025
93f8e1d84edd1b919f40d4725b27d43a,UAE Visas,Jeddah,Jeddah,"Prince Mohammed Bin Abdulaziz St, Al Faisaliyyah, Jeddah 23441, Saudi Arabia",23441,39.18225097,21.55934856,Travel & Lodging,Travel Agencies,Tour agency,Open 24 hours,+966 54 417 1745,uaevisas.jed.com,5.0,2.0,23.71,,03-2025
e51f3d3751491d3b0032d067ace7d36f,القمه للعمره والزياره,Skirinah,Riyadh,"النفوحه, Riyadh 96665, Saudi Arabia",96665,46.71465515,24.61617597,Travel & Lodging,Travel Agencies,Travel agency,Open 24 hours,+966 50 325 4510,qammaumrahtrips.wuiltweb.com,4.6,9.0,25.86,,03-2025
b3888f7a9927d1e51ee2f96eeb8e467f,مخيم السالمية,Eastern Province,Dammam,"Dammam 31311, Saudi Arabia",31311,49.83435376,26.36458415,Travel & Lodging,Vacation Rentals & RV,Camping cabin,Open,+966 55 909 0313,instagram.com,4.5,137.0,15.14,,03-2025
fb2e611c55050ebcbfa585500ae89680,حملة الطيب للعمرة والزيارة,Riyadh Province,Riyadh,"Al-Bathaa, Riyadh 83659, Saudi Arabia",83659,46.71717457,24.62212835,Travel & Lodging,Travel Agencies,Transportation service,Open 24 hours,+966 55 336 8397,sites.google.com,5.0,4.0,32.14,,03-2025
3fe2a81aac519d010fd2a41790f20dac,مجموعة سيرا - Seera Group‎,Jeddah,Jeddah,"Unnamed Road, King Abdulaziz International Airport, Jeddah 23634, Saudi Arabia",23634,39.17205737,21.66014337,Travel & Lodging,Travel Agencies,Travel agency,Open 24 hours,+966 9200 12333,seera.sa,3.4,46.0,28.71,,03-2025
cd69b3cc6b682e3fb524e23159a2278c,"ROYAL TRAVELS KHAMIS MUSHAIT, ABHA",Aseer Province,Khamis Mushait,"Khamis Mushait 62616, Saudi Arabia",62616,42.82708439,18.30601864,Travel & Lodging,Travel Agencies,Travel agency,Open,+966 56 925 8786,royaltravels.com,5.0,3.0,26.29,,03-2025
8696802a8cd5abffc0b067af48101fae,Western World Travel & Tourism,Jeddah,Jeddah,"Abd Al Qadous Al Ansari, st, Jeddah 22253, Saudi Arabia",22253,39.24448285,21.50360027,Travel & Lodging,Travel Agencies,Travel agency,Open,+966 54 114 4865,instagram.com,4.4,51.0,37.86,,03-2025
b64d09d116129f3057e359091fe53f02,مكتب أنوار المؤمل,Dammam Metropolitan Area,Saihat,"الملك عبدالعزيز, Al Firdaws, Saihat 31972, Saudi Arabia",31972,50.04271142,26.47945359,Travel & Lodging,Travel Agencies,Travel agency,Open,+966 13 856 6680,,4.5,33.0,52.0,People typically spend up to 3.5 hours here,03-2025
5e4b00d03188f18079c81c8a7b0c59bb,سطحة مكة,Makkah Province,Makkah,"Batha Quraish, Makkah 24362, Saudi Arabia",24362,39.82076952,21.35850812,Travel & Lodging,Travel Agencies,Transportation service,Open 24 hours,+966 56 510 4780,sathat4u.com,4.6,32.0,30.43,,03-2025
f3bb9cbe67551c62e30f89543fa0e0d1,Jeeny Driver office,Riyadh Province,Riyadh,"Abdulrahman Al Ghafeqi St, Ar Rawdah, Riyadh 13213, Saudi Arabia",13213,46.7497945,24.74111029,Travel & Lodging,Travel Agencies,Transportation service,Open,+966 11 226 3014,jeeny.me,2.8,625.0,39.5,,03-2025
3fb3a042670c41f5deb22c866af0785c,رحلات بحرية. يخت النعمه . Redsea trips,Jeddah,Jeddah,"Jeddah 23813،, Saudi Arabia",23813،,39.10438892,21.7221529,Travel & Lodging,Cruises & Ferries,Cruise agency,Open 24 hours,+966 54 028 8624,snapchat.com,5.0,2.0,29.29,,03-2025
786eb7c25a8c8c8b8541c873f79ca51b,رحلات وحفلات بحرية,Jeddah,Jeddah,"Prince Abdullah AlFiasal St, Obhur Al-Shamaliyah, Jeddah 21432, Saudi Arabia",21432,39.10316079,21.7234362,Travel & Lodging,Cruises & Ferries,Cruise agency,Open 24 hours,+966 56 784 3496,instagram.com,4.8,16.0,26.43,,03-2025
9081ccc319dce45c0ea401cdd054fbcd,بياضه تورز- رحلات بحرية - جزيرة بياضة - Bayadah Island,Jeddah,Jeddah,"حي, Al Kurnaysh Br Rd, Abhur Al Junoobiyah, Jeddah 23731, Saudi Arabia",23731,39.10159259,21.71779143,Travel & Lodging,Cruises & Ferries,Cruise agency,Open 24 hours,+966 55 777 9822,sites.google.com,4.3,50.0,27.29,,03-2025
ca6f8fb0537a3a00fcec6178b8f853c8,سطحات الدمام,Dammam Metropolitan Area,Dammam,"2661، 7500 13 ا، 2661, Dammam 32243, Saudi Arabia",32243,50.08568127,26.43254565,Travel & Lodging,Travel Agencies,Transportation service,Open 24 hours,+966 55 039 3710,sathatowingservice.com,4.7,177.0,42.71,,03-2025
9da13907bafd509f09ab191b06a1d7b6,Hizam M. Al-Qahtani Co.,Dammam Metropolitan Area,Dammam,"3051 23د, EIJA7405, 7405, Dammam 34344, Saudi Arabia",34344,49.94185497,26.20029127,Travel & Lodging,Travel Agencies,Transportation service,Open,+966 50 658 2772,hizamgroup.com,4.7,3.0,42.43,,03-2025
2ac4723f91ccc15951cde7f7aad188db,Jeddah Al-Sulaymaniyah Station ( Haramain Railway),Jeddah,Jeddah,"Jeddah 23236, Saudi Arabia",23236,39.24240192,21.51655642,Travel & Lodging,Travel Agencies,Transportation service,Open,+966 9200 04433,sar.hhr.sa,4.6,9206.0,66.71,,03-2025
92d69a1d30a0867e4e9140740f32c355,شركة المسافر للسفر والسياحة,Jeddah,Jeddah,"King Abdulaziz International Airport, Jeddah 22233, Saudi Arabia",22233,39.17082021,21.66074589,Travel & Lodging,Travel Agencies,Travel agency,Open 24 hours,+966 9200 00997,almosafer.com,3.7,45.0,26.29,,03-2025
1215a90dfba6c262e4d9b266b6b2b000,Northwest Bus Station Madinah City,Al Madinah Province,Madinah,"DMAG4325 8580 Prince Muhammad Ibn Abd Al Aziz، 4325, Madinah 42313, Saudi Arabia",42313,39.62186843,24.49207676,Travel & Lodging,Travel Agencies,Transportation service,Open 24 hours,+966 9200 20590,nwbus.sa,3.2,283.0,61.14,,03-2025
af381c1009e1e9310edc05eb366c1932,محيط العالم للسفر والسياحة,Riyadh Province,الرياض,"7783 شارع ابن كثير، الملك عبد العزيز، الرياض 13334, Saudi Arabia",13334,46.71874185,24.6993433,Travel & Lodging,Travel Agencies,Tour operator,Open,+966 53 646 9055,worldocean-sa.com,5.0,93.0,27.14,,03-2025
264ed98470297567c2703db7f494ebb6,SAT Bus Agent- Muhayil | وكيل حافلات سات- محايل,Aseer Province,Al Nasim,"211, Al Nasim 63722, Saudi Arabia",63722,42.02726216,18.59048182,Travel & Lodging,Travel Agencies,Transportation service,Open,+966 9200 18221,satrans.com.sa,5.0,2.0,37.43,,03-2025
1ca8b5a0cb72d56b97405dc1a8467173,EIRAD INTERNATIONAL TRAVEL & Tourism,Riyadh Province,Riyadh,"Bangladesh market, Riyad, Al Nasim, Haiassalam, Riyadh 14231, Saudi Arabia",14231,46.81543813,24.73113422,Travel & Lodging,Travel Agencies,Travel agency,Open,+966 54 884 0834,facebook.com,4.5,4.0,26.86,,03-2025
e956ebb4d7047c277a031410ba2e315b,وكالة تذكرة مسافر للسفر والسياحة,Jeddah,Jeddah,"حي النسيم،، 4145 ام المؤمنين الحيبية، 6720،, Jeddah 23233, Saudi Arabia",23233,39.23590271,21.51591839,Travel & Lodging,Travel Agencies,Travel agency,Open,+966 56 450 8997,ticketmusafir.online,4.6,101.0,41.14,,03-2025
f439e11459eeb495fa04b18af6c018cc,AlQaloob Travels and Tourism,Thulaim,Riyadh,"حي ثليم, RCSA7137، 7137 أحمد بن فارس، 3449, Riyadh 12646, Saudi Arabia",12646,46.7267027,24.64009144,Travel & Lodging,Travel Agencies,Travel agency,Open,+966 53 136 1492,alqaloob.rf.gd,4.5,2.0,36.86,,03-2025
2c090f3b62b0c43a912e599fa7cb7079,السيف اكسبرس,Hail Province,Hail,"5647 Near لمسة ريف للديكور، 6840, Hail 55424, Saudi Arabia",55424,41.69159015,27.51442855,Travel & Lodging,Travel Agencies,Transportation service,Open,+966 800 304 4400,alsaif-express.com,4.5,104.0,43.5,,03-2025
6ad3443b588a567cf605b62fdf8e7859,Saptco Abha,Aseer Province,Abha,"خط الطائف, 6499 2499 King Faisal Rd, Alarin, Abha 62542, Saudi Arabia",62542,42.52093415,18.22146219,Travel & Lodging,Travel Agencies,Transportation service,Open,+966 800 124 9999,saptco.com.sa,3.7,667.0,62.29,,03-2025
87bbb25150156a99943c2fe2cb0408bc,نورث وست باص,Ar Rass,Ar Rass,"٤٠٢٤ King Abdulaziz Rd, Alqadisiyah, Ar Rass 58884, Saudi Arabia",58884,43.50795235,25.87793849,Travel & Lodging,Travel Agencies,Transportation service,Open,+966 9200 20590,nwbus.sa,2.9,27.0,41.43,,03-2025
9e6c43d6ecebcb76bb4250b33f18156e,Northwest BUS,Tabuk Province,Duba,"KCAA6472, Duba 49513, Saudi Arabia",49513,35.68748271,27.3621928,Travel & Lodging,Travel Agencies,Transportation service,Open 24 hours,+966 9200 20590,nwbus.sa,5.0,2.0,30.0,,03-2025
287093e16845664601e296234e738c21,Saptco VIP Express Riyadh,Riyadh Province,Riyadh,"العام, Al Olaya, Riyadh 12445, Saudi Arabia",12445,46.68887486,24.67704274,Travel & Lodging,Cruises & Ferries,Bus tour agency,Open,+966 11 416 9007,saptco.com.sa,4.1,239.0,28.14,,03-2025
7512706abaff9bd9ed57972345a50661,شركة اسفار العالم لرحلات الصيد في افريقيا,Riyadh Province,Riyadh,"4087 Al Cheikh Hasan Ibn Hussein Ibn Ali, Qurtubah، 7924, Riyadh 13245, Saudi Arabia",13245,46.75003264,24.81742564,Travel & Lodging,Travel Agencies,Travel agency,Open,+966 50 871 5554,instagram.com,5.0,4.0,20.0,,03-2025
2fed12e4e05bf05ea6dad2ff556bd489,City Sightseeing Madinah,Al Madinah Province,Madinah,"شارع أبو عبيدة بن الجراح, Bada'ah, Madinah 42311, Saudi Arabia",42311,39.60903171,24.47258544,Travel & Lodging,Travel Agencies,Sightseeing tour agency,Open,+966 9200 14044,csmadinah.com,4.1,1083.0,31.43,,03-2025
88804cad0d153728dddff45e7a750dc7,الوكالة الذهبية العالمية للسفر والسياحة,Al Madinah Province,Madinah,"Eskan Dist, Al Iskan, Madinah 42317, Saudi Arabia",,39.64520334,24.44525122,Travel & Lodging,Travel Agencies,Travel agency,Open,+966 9200 29449,gita.sa,4.0,857.0,44.86,People typically spend up to 2 hours here,03-2025
ba58b4f6ea1de3de7dff3a8ef60f0ad3,Dunia Al Rehlat,Riyadh Province,Riyadh,"Ihssa Street 6529 3151 unit 4 - 12815, Riyadh 14526, Saudi Arabia",14526,46.73169013,24.68348119,Travel & Lodging,Travel Agencies,Travel agency,Open,+966 9200 04997,duniaalrehlat.com.sa,3.9,396.0,50.17,,03-2025
91b810b392bf73883cfab5a9aafb3d68,مرسى أمانة جدة,Jeddah,Jeddah,"مرسى امانة، شارع الأمير عبدالله الفيصل, Abhur Al Junoobiyah, Jeddah 23421, Saudi Arabia",23421,39.10221632,21.7171426,Travel & Lodging,Cruises & Ferries,Cruise agency,Open 24 hours,+966 53 536 8822,,4.5,54.0,35.86,People typically spend up to 2 hours here,03-2025
5040f467390a2ab4b9d11e7608256669,الراجحي للطيران Alrajhi Aviation,Jeddah,Jeddah,"2679 Sultan Bin Salman St - حي النزهة جدة 23532 - 6470, Jeddah 00000, Saudi Arabia",00000,39.1557885,21.61833517,Travel & Lodging,Travel Agencies,Travel agency,Open,+966 12 667 7472,alrajhiaviation.com,4.0,8.0,23.67,,03-2025
31fa3b107385a0cc7649f045992d4753,الشركة العربية لخدمات المسافرين - الملز,Riyadh Province,Riyadh,"2519 Umar Ibn Abdul Aziz Br Rd, Al Malaz, Riyadh 12831, Saudi Arabia",12831,46.72912092,24.6794621,Travel & Lodging,Travel Agencies,Travel agency,Open,+966 11 474 0011,actstour.com,4.3,135.0,29.71,,03-2025
358fed26baba4b4c963fd6be0e166f1a,اسفار الجمعة للسفر والسياحة,Al Qassim Province,Buraydah,"7647 King Abdulaziz Rd, Al Safra'، 4170, Buraydah 52381, Saudi Arabia",52381,43.94685024,26.35887615,Travel & Lodging,Travel Agencies,Travel agency,Open,+966 54 486 7797,tr.ee,4.5,42.0,32.33,,03-2025
15173517fd53e93787cdfd3bd8849efa,Owaidah Travel & Tourism Agency,Dammam Metropolitan Area,Al Khobar,"Al Khobar 31952, Abdullah Fouad Building, near McDonalds, King Abdulaziz Rd, Madinat Al Umal 16th Street, Al Khobar 31952, Saudi Arabia",31952,50.20484363,26.29459953,Travel & Lodging,Travel Agencies,Travel agency,Open,+966 13 894 8080,owaidahtravel.com,4.5,50.0,38.86,,03-2025
df8e552829de1233fedd9d1aad0f044e,الراجحي للطيران Alrajhi Aviation,Dammam Metropolitan Area,Dammam,"17th Street, Al Souq, Dammam 32242, Saudi Arabia",32242,50.09504594,26.44164978,Travel & Lodging,Travel Agencies,Travel agency,Open,+966 13 834 3199,alrajhiaviation.com,4.0,62.0,41.5,,03-2025
3f1841c2c6e41f7fec86875e7a4c079c,Time Travel Agency,Riyadh Province,Riyadh,"At Takhassusi Branch St, Al Olaya, Riyadh 12333, Saudi Arabia",12333,46.66188022,24.70770956,Travel & Lodging,Travel Agencies,Travel agency,Open,+966 11 451 1145,timetravelt.com,3.8,19.0,34.83,,03-2025
8171b3ecdb50fc783c3d4b013b140b63,Traveler Club,Riyadh Province,Riyadh,"8454 King Abdul Aziz Branch Rd, Al Muruj, Riyadh 12284, Saudi Arabia",12284,46.66663049,24.76727374,Travel & Lodging,Travel Agencies,Travel agency,Open,+966 11 456 2097,travelerclub.sa.com,3.8,392.0,33.86,,03-2025
872c8f21d6c0fb26643cd745dcd26202,Saptco For Travel - مكتب سابتكو الوحدة,Riyadh Province,Riyadh,"Manfouhah Al Jadidah, Riyadh 12656, Saudi Arabia",,46.71854748,24.61343473,Travel & Lodging,Travel Agencies,Travel agency,Open 24 hours,+966 59 285 8602,alwehda.nehgz.com,3.3,191.0,40.57,People typically spend up to 4 hours here,03-2025
bcc43114b927e9c0f22d8d150dd7b83a,Alrajhi Aviation,Al Madinah Province,Madinah,"3381 As Sih, Al Fath, 7291, Madinah 42312, Saudi Arabia",42312,39.59305995,24.47895972,Travel & Lodging,Travel Agencies,Travel agency,Open,+966 14 826 1697,alrajhiaviation.com,4.0,75.0,47.83,,03-2025
6513eb1283dcc39bb87132b20619dcf2,شركة سكاي الدولية للسفر و السياحة,Riyadh Province,Riyadh,"Malil, Al Mughrizat, Riyadh 12481, Saudi Arabia",12481,46.72111597,24.75353444,Travel & Lodging,Travel Agencies,Travel agency,Open,+966 9200 00453,skyflyway.com,3.7,97.0,40.67,,03-2025
5910c56de5f3a3482c585c326a704569,GAZI UMRAH SERVICE (গাজী ওমরাহ),Dammam Metropolitan Area,Dammam,"Al Souq, Dammam 32242, Saudi Arabia",32242,50.09699066,26.44185364,Travel & Lodging,Travel Agencies,Travel agency,Open,+966 54 051 3856,,3.8,32.0,31.71,People typically spend up to 2 hours here,03-2025
a1085d65acd4b2469eb8a3f920acc285,MOULANA MADEENA ZIYARA,Jeddah,Jeddah,"Opp. AL RYAN INTL. POLYCLINIC, Al Sharafeyah, Jeddah 21577, Saudi Arabia",21577,39.19033629,21.50173367,Travel & Lodging,Travel Agencies,Transportation service,Open,+966 50 980 5899,m.facebook.com,3.6,213.0,31.57,,03-2025
7f3cbd26c8455ca55bccbda5c29e20ca,Altanfeethi Lounge,Jeddah,Jeddah,الصالات، الأمير ماجد، مطار الملك عبدالعزيز الدولي، جدة 23631 Saudi Arabia,,39.16791423,21.66077877,Travel & Lodging,Travel Agencies,Travel lounge,Open 24 hours,+966 800 120 2222,altanfeethi.com.sa,4.5,3762.0,64.71,People typically spend up to 1.5 hours here,03-2025
13790487bcc78ba37d4a4667d8c3f38a,شركة سعيد محمد البسامي - فرع جنوب جدة,Jeddah,Jeddah,"6955 المائه، 3112، حي الجوهرة، جدة 22416, Jeddah 12345, Saudi Arabia",12345,39.2555059,21.44510058,Travel & Lodging,Travel Agencies,Transportation service,Open,+966 55 585 7679,smb.express,3.3,1347.0,69.86,,03-2025
7343e50b6d369be6e94af359cd9404a2,Tourism Bus Station,Riyadh Province,Riyadh,"3472, Ar Rimal, 6703, Riyadh 13263, Saudi Arabia",13263,46.81370533,24.83588316,Travel & Lodging,Travel Agencies,Tour operator,Open,+966 50 515 2053,twitter.com,3.8,89.0,50.29,,03-2025
7991846bdbb24a47f90381264c1310ff,MAALEM ( city bus) AL MANAKAH Square,Al Madinah Province,Madinah,"Al Haram, Madinah 42311, Saudi Arabia",42311,39.60470487,24.46519322,Travel & Lodging,Travel Agencies,Sightseeing tour agency,Open,+966 9200 14044,csmadinah.com,4.5,47.0,28.29,,03-2025
21833d22a390d57cfb9dc5e39011ea2e,Abaseen Cargo And Travel,Dammam Metropolitan Area,Dammam,"6312 2، 5367, Al Khalij, Dammam 32425, Saudi Arabia",32425,50.09282296,26.4438455,Travel & Lodging,Travel Agencies,Tour agency,Open,+966 59 202 0551,facebook.com,4.3,10.0,38.86,,03-2025
750fbf763da929e9ec47c137d0f39346,Josoor Travel - جسور السفر للسفر والسياحة,Al Qassim Province,Qbah,"Qbah 52836, Saudi Arabia",52836,44.32687517,27.39972436,Travel & Lodging,Travel Agencies,Travel agency,Open 24 hours,+966 55 136 4490,josoortravels.com,2.3,3.0,23.0,,03-2025
41537dda754f88b7a252878bdd2a8a92,حملات العمرة من الرياض,Riyadh Province,Riyadh,"Al Bathaa, Almarqab, Riyadh 12661, Saudi Arabia",12661,46.71468474,24.63553555,Travel & Lodging,Travel Agencies,Travel agency,Open,+966 50 289 2469,nearalharam.com,3.7,102.0,30.57,,03-2025
a6bd88f0007424b14cfa51bae36a77c2,مكتب النقل الجماعي ( SAPTCO - سابتكو ) بالعريسة,Najran Province,Alaraysah Al Janubi Subdivision,2111 طريق الملك عبدالعزيز، حي العريسة، نجران 66231 8040، Saudi Arabia,,44.3198772,17.56584563,Travel & Lodging,Travel Agencies,Travel agency,Open,+966 17 544 0184,saptco.com.sa,3.7,214.0,40.57,People typically spend up to 30 min here,03-2025
b415546eb6b1baa3c138f750fe4181fe,Globe Logistics Jeddah,Jeddah,Jeddah,"Jeddah Islamic Seaport, Jeddah 22311, Saudi Arabia",22311,39.16635698,21.47897391,Travel & Lodging,Travel Agencies,Transportation service,Open 24 hours,+966 12 627 3333,globeksa.com,4.2,64.0,34.43,,03-2025
3ab1eb0396634e82920cb311e3d9e2e5,Elite Companions for Hajj,Jeddah,Jeddah,"Aziziyah, Jeddah 23337, Saudi Arabia",23337,39.18698018,21.55440023,Travel & Lodging,Travel Agencies,Travel agency,Open,+966 12 676 1313,facebook.com,4.1,89.0,27.57,,03-2025
658c64de17cca03126e64afb9c1c3bf0,الايرادات للنقل,Dammam Metropolitan Area,Dammam,"Dammam 32332, Saudi Arabia",32332,49.94632141,26.33047758,Travel & Lodging,Travel Agencies,Transportation service,Open,+966 13 827 3050,earadat.com,4.1,100.0,70.17,,03-2025
c4722a1ec9b2a99d01ca7e7803259ca2,شركة إيلاف,Al Madinah Province,Madinah,"King Faisal Rd, Al Masani, Madinah 42311, Saudi Arabia",42311,39.60928823,24.47403079,Travel & Lodging,Travel Agencies,Tour agency,Open 24 hours,+966 9200 03969,elafgroup.com,3.5,2.0,24.43,,03-2025
9a00e59e313a090cb77d59c36489c3c0,مجموعة سيرا - Seera Group‎,Riyadh Province,Riyadh,"مطار الملك خالد الدولي بالرياض، الصاله 1, King Khalid International Airport, Riyadh 13458, Saudi Arabia",13458,46.6978669,24.96293342,Travel & Lodging,Travel Agencies,Travel agency,Open 24 hours,+966 11 220 0452,seera.sa,3.4,9.0,34.57,,03-2025
011f29c15814ca7ba8a5b2879b3fe5e2,مكتب القليطي للسفريات الدولية,Al Madinah Province,Madinah,"2344 طريق خالد بن الوليد الفرعي، 7303 42332, Saudi Arabia",42332,39.55728364,24.49839674,Travel & Lodging,Travel Agencies,Travel agency,Open 24 hours,+966 59 053 0933,,4.2,150.0,44.29,People typically spend up to 1.5 hours here,03-2025
16b99d054aef257c2f6ab8968bb065c4,Smart Ticket Travel & Tourism,Dammam Metropolitan Area,Al Qatif,"Al Quds St, Al Majidiyah, Al Qatif 32632, Saudi Arabia",32632,50.01512342,26.54782876,Travel & Lodging,Travel Agencies,Travel agency,Open,+966 50 433 9627,smart-ticket.net,4.9,332.0,41.17,,03-2025
4cf5623035ec836429128cd5f3ad0342,Saptco,الاندلس,Shaqra,"3952 King Fahd Rd, Al Shifa, Shaqra 15557, Saudi Arabia",15557,45.23153383,25.21416432,Travel & Lodging,Travel Agencies,Transportation service,Open,+966 9200 00877,saptco.com.sa,3.7,503.0,68.86,,03-2025
aca834cab1f2d3fdd5c1274030d955bd,SMB Express,Dammam Metropolitan Area,Dammam,"Showrooms St, King Fahd Suburb, Dammam 32314, Saudi Arabia",32314,50.0038715,26.39972778,Travel & Lodging,Travel Agencies,Transportation service,Open,+966 55 506 8516,smb.express,3.4,1506.0,69.71,,03-2025
b11bcc7a856af4ab61856e78897a4c0e,ACE Travel,Riyadh Province,Riyadh,"Prince Faisal Bin Turki Bin Abdulaziz St, Al Murabba, Riyadh 12612, Saudi Arabia",,46.69955361,24.66621349,Travel & Lodging,Travel Agencies,Travel agency,Open,+966 11 464 8810,ace-travel.com,3.5,67.0,36.67,People typically spend up to 2 hours here,03-2025
199fa9aff1dfe8bddb0a93dd51d875b3,قارب فال الخير للرحلات مع وجبات,Saudi Arabia,Al Jubail,"Arabian Gulf, Fanateer, Al Jubail 35811, Saudi Arabia",35811,49.56694679,27.13467571,Travel & Lodging,Cruises & Ferries,Boat tour agency,Open 24 hours,+966 50 584 7283,instagram.com,4.3,22.0,22.43,,03-2025
c98fdb10788e2a34acb7bbb34246060e,السالم للسفريات والنقل فرع جدة,Jeddah,Jeddah,"طريق الملك عبد الله الفرعي ، خالد بن النعمان، الرويس، جدة 23214، مقابل السارية سكوير, Jeddah 23214, Saudi Arabia",23214,39.17638918,21.51070257,Travel & Lodging,Travel Agencies,Transportation escort service,Open,+966 50 851 5777,al-salem.info,3.5,149.0,22.14,,03-2025
4884b78cc309f734a62c9ffd47708313,Al Ettifaq Travel & Tourism(الاتفاق للسفر والسياحة),Jeddah,Jeddah,"Nearby Domino’s Pizza & Supermarket Yhala 2263, Jeddah 22347, Saudi Arabia",22347,39.24331734,21.45550111,Travel & Lodging,Travel Agencies,Travel agency,Open,+966 12 635 7796,alettifaqtravel.com,4.1,14.0,34.29,,03-2025
0b6ef97c5504e8a64916ddd74488bf65,مكتب حجوزات النقل الجماعي سابتكو - الحواج للسفر,Dammam Metropolitan Area,Saihat,"5636، 8176 عمر بن عبد العزيز، الديرة، سيهات‎ 32461 5636، 32461, Saudi Arabia",32461,50.0363205,26.48647843,Travel & Lodging,Travel Agencies,Travel agency,Open,+966 13 856 1222,saptco.com.sa,4.0,176.0,,People typically spend up to 4 hours here,03-2025
f889131b81b1cb54dacaea0677471e00,Alireza Delta Transport Co.Ltd,Dammam Metropolitan Area,Dammam,"King Abdul Aziz Seaport, Dammam 32212, Saudi Arabia",32212,50.18234177,26.4513673,Travel & Lodging,Travel Agencies,Transportation service,Open,+966 13 847 4999,alireza.com,4.4,41.0,55.17,,03-2025
08dc5f164fe6061a9a2c569180d307b0,"TFA manasek, Saudi Arabia",Makkah Province,Makkah,"6476 Khalediah Dist, Makkah 24232, Saudi Arabia",24232,39.79438596,21.39891754,Travel & Lodging,Travel Agencies,Travel agency,Open 24 hours,+966 54 459 7227,,4.6,32.0,29.29,People typically spend up to 4 hours here,03-2025
cee9207a71c54b1704acd863490fceb0,Saptco,Riyadh Province,Al-Kharj,"King Abdulaziz Rd, Al Munyfiyah, Al-Kharj 16279, Saudi Arabia",16279,47.28932728,24.17228212,Travel & Lodging,Travel Agencies,Transportation service,Open,+966 9200 00877,saptco.com.sa,3.6,1039.0,64.71,,03-2025
5b3d1c318c974df9c8b7c6dc96a6bed3,الوكالة العربية التركية للسياحة,Jeddah,Jeddah,"As Salamah, Jeddah 23436, Saudi Arabia",23436,39.15036254,21.57786324,Travel & Lodging,Travel Agencies,Tour agency,Open 24 hours,+966 54 330 1120,turkiarabitravel.com,3.0,8.0,28.33,,03-2025
f42157124ab2b884813ab354a9ae378b,Najaa Travel & Tourism,Aseer Province,Khamis Mushait,"3418 Jeddah, Al Muntazah, Khamis Mushait 62461, Saudi Arabia",62461,42.72195188,18.30400856,Travel & Lodging,Travel Agencies,Travel agency,Open,+966 17 220 6898,najaatravel.com,4.8,10.0,30.14,,03-2025
96631c26bfddd4e7cb167a9196e95c00,Fursan Travels - فرسان للسفر,Riyadh Province,Riyadh,"4301 Abu Oubaidah Ibn Al Jarrah, As Sulay, Riyadh 14267, Saudi Arabia",14267,46.84730267,24.68791386,Travel & Lodging,Travel Agencies,Travel agency,Open,+966 11 242 4447,fursan.com.sa,3.7,35.0,32.71,,03-2025
cc3310a81387d97a104bec58b53aecf3,وكالة برج المطار للسفر والسياحة,Riyadh Province,Al Bijadyah,"الملك عبدالعزبز, Al Bijadyah 17331, Saudi Arabia",17331,43.73676628,24.29666956,Travel & Lodging,Travel Agencies,Travel agency,Open,+966 57 060 0107,burjalmatar.com,5.0,1.0,32.14,,03-2025
ed9c310713232ac529e44f1867f393b5,مكتب حجز طيران - travel agency,Al Madinah Province,Madinah,"أحمد بن الحجاج, Ad Difa, Madinah 41311, Saudi Arabia",41311,39.50934359,24.45380737,Travel & Lodging,Travel Agencies,Travel agency,Open,+966 57 542 9071,chat.whatsapp.com,4.7,375.0,36.0,,03-2025
a053dc64d6153d0f47b8b463bc854a1f,Can Travel Agency,Riyadh Province,Riyadh,"King Abdulaziz Rd، طريق الأمام سعود, Riyadh 12254, Saudi Arabia",12254,46.67274111,24.75331448,Travel & Lodging,Travel Agencies,Tour agency,Open,+966 55 105 2255,canksa.com,4.2,81.0,36.17,,03-2025
b6311b5a544f11a0f7b1571724e71b7a,وكالة تواقة للسفر والسياحة,Riyadh Province,Riyadh,"An Nuzhah، طريق ابو بكر الصديق الفرعي, Riyadh 12473, Saudi Arabia",12473,46.69276811,24.76050149,Travel & Lodging,Travel Agencies,Travel agency,Open,+966 53 254 6702,tawwaqah-travel.com,4.4,93.0,37.71,,03-2025
380c58191e4425b30c8a0cf5c38dcdb7,المسافر للسفر والسياحة,Riyadh Province,Riyadh,"طريق عمر بن عبدالعزيز،, Az Zahra, Riyadh 11564, Saudi Arabia",11564,46.73041552,24.68024187,Travel & Lodging,Travel Agencies,Travel agency,Open,+966 9200 00997,almosafer.com,3.4,215.0,56.86,,03-2025
bb896bc5ebfe023823efcc7529e1ad69,Golden Days Travel Agency,Al Madinah Province,Madinah,"6512 Al Manarat, Al Aridh, 3745, Madinah 42314, Saudi Arabia",42314,39.64279038,24.47477429,Travel & Lodging,Travel Agencies,Travel agency,Open,+966 58 320 3115,goldendaystravels.com,4.2,54.0,37.14,,03-2025
6ce4a1bab624fd97224765726511adcf,وكالة نجوم السفر للسفر والسياحة,Jeddah,Jeddah,"3715 صاري، حي الروضة، جدة 23434 9380،, Jeddah 23434, Saudi Arabia",23434,39.15657874,21.57900852,Travel & Lodging,Travel Agencies,Travel agency,Open,+966 9200 15359,travelstarsksa.com,4.3,53.0,41.33,,03-2025
0b877793fa3dc814120ad5ff62bf9b1e,مواكب للسفر والسياحة,Riyadh Province,Riyadh,"Prince Saad Ibn Abdulrahman Al Awal Rd, Ar Rawabi, Riyadh 14216, Saudi Arabia",14216,46.80295561,24.69119217,Travel & Lodging,Travel Agencies,Travel agency,Open,+966 11 455 5069,mwakeb.com,4.8,92.0,32.43,,03-2025
c0fefc77d7e0f4b887cf09ebe1853b47,وكالة عنوان الجزيرة للسفر والسياحة,Old Subdivision,Sakaka,"فندق النزل، الشارع العام امام، طريق الملك عبدالعزيز دوار الساعة, Sakaka 72341, Saudi Arabia",72341,40.20123872,29.95922668,Travel & Lodging,Travel Agencies,Travel agency,Open 24 hours,+966 50 988 7001,wa.me,4.3,89.0,33.29,,03-2025
006c152edad029bb3f73893b9e47d67c,SMB EXPRESS - Riyadh AlShafa || البسامي الرياض الشفاء,Riyadh Province,Riyadh,"معارض الشفا ،, Al Imam Muslim, Al Marwah, Riyadh 14722, Saudi Arabia",14722,46.67382186,24.54713347,Travel & Lodging,Travel Agencies,Transportation service,Open,+966 9200 05587,smb.com.sa,3.6,2235.0,48.14,,03-2025
ac93e09c4d4c2a0df6bddaff40e8a710,الجميعة للسفر والسياحة,Riyadh Province,Riyadh,"King Abdullah Branch Rd, Al Mohammadiyyah, Riyadh 12361, Saudi Arabia",12361,46.66079987,24.72815416,Travel & Lodging,Travel Agencies,Travel agency,Open,+966 11 200 4477,aljumaiah.sa,4.3,27.0,,People typically spend up to 4 hours here,03-2025
6e0ce23c188e6f7fca1427001859aaac,شركة العطلات الذهبية لخدمات المعتمرين والسياحة,Makkah Province,Makkah,"Ar Rusayfah, Makkah 24232, Saudi Arabia",24232,39.78738576,21.43364972,Travel & Lodging,Travel Agencies,Travel agency,Open 24 hours,+966 12 544 5440,royalholidays.org,4.7,10.0,32.86,,03-2025
8e56e7dfcfd21f956918f0bbf64121b5,ITL World Travel Management Company,Dammam Metropolitan Area,Al Khobar,"District، Khobar Business Gate Tower King Faisal Bin Abdul Aziz Road Bandariyah, Al Khobar 34424, Saudi Arabia",34424,50.21373463,26.31507633,Travel & Lodging,Travel Agencies,Tour agency,Open,+966 13 898 3222,itlworld.com,4.2,156.0,,People typically spend up to 4 hours here,03-2025
c10f417638d4ba0b87a006f2c7702524,Maxon transportation Company,Riyadh Province,Riyadh,"Al Qadisiyyah, Riyadh 13261, Saudi Arabia",13261,46.82085914,24.82785298,Travel & Lodging,Travel Agencies,Transportation service,Open,+966 9200 00477,maxon.sa,3.7,21.0,41.17,,03-2025
4a8e4e3260b0d12f8c5ae6152c6def8a,Ejaz travel & tourism,Riyadh Province,Riyadh,"dist, Al Hamra, Riyadh 13217, Saudi Arabia",13217,46.76813611,24.78345679,Travel & Lodging,Travel Agencies,Travel agency,Open,+966 9200 01639,ajaztravel.com.sa,4.1,56.0,26.33,,03-2025
365c47710a66dbad8bd683d9c2404d3a,Um Alhindiban Resort,Dammam Metropolitan Area,Safwa,"3724, Al Shura, Safwa 32828, Saudi Arabia",32828,49.96577671,26.66089888,Travel & Lodging,Vacation Rentals & RV,Camping cabin,Open,+966 50 588 2768,instagram.com,4.1,202.0,31.71,,03-2025
8189fab08e204cdecdc6e736c8855e00,Alia Travel and Tourism Co.,Dammam Metropolitan Area,Al Khobar,"24th St, Al Khobar Al Shamalia, Al Khobar 34426, Saudi Arabia",34426,50.20674332,26.29956943,Travel & Lodging,Travel Agencies,Travel agency,Open,+966 13 867 0808,alia.com.sa,4.3,64.0,39.43,,03-2025
e4658e4c117b6477652e09646a9506dd,SAPTCO VIP EXPRESS,Jeddah,Jeddah,"المحمدية،، طريق الامير سلطان، 23618،, Jeddah 23618, Saudi Arabia",23618,39.2019394,21.66565165,Travel & Lodging,Travel Agencies,Transportation service,Open,+966 12 659 9111,saptco.com.sa,4.0,783.0,28.86,,03-2025
3c98e93c00cbffbc3f3a338ecd328639,Al Nasr Travel,Jeddah,Jeddah,2288، حي الجوهرة، جدة 22416 8801، Saudi Arabia,,39.2476369,21.43829826,Travel & Lodging,Travel Agencies,Travel agency,Open,+966 56 620 3188,alnasartravels.com,5.0,30.0,38.71,People typically spend up to 30 min here,03-2025
acb71e9c98e1f88de751cbf158b0357c,AlUla Guide Tours,Al Madinah Province,AlUla,"طريق الملك فهد, Al Sukhayrat, AlUla 43512, Saudi Arabia",43512,37.9195265,26.61075645,Travel & Lodging,Travel Agencies,Tour agency,Open,+966 9200 23209,alulaguide.sa,4.1,206.0,55.5,,03-2025
696b468d983dbe790c3dc2c87f683b78,Qomra Al Mosafer Travel & Tourism,Hail Province,Hail,"الملك فيصل, Hail 55471, Saudi Arabia",55471,41.68802577,27.52428643,Travel & Lodging,Travel Agencies,Travel agency,Open,+966 53 721 2212,,4.5,71.0,32.14,People typically spend up to 1.5 hours here,03-2025
ea95d1b3393a67a6d79b5749e640325e,جسور السفر للسفر والسياحة الخبيب ١,Al Qassim Province,Buraydah,"King Abdulaziz Rd, At Taghirah, Buraydah 52361, Saudi Arabia",52361,43.96592721,26.33484579,Travel & Lodging,Travel Agencies,Travel agency,Open,+966 50 532 6677,josoortravels.com,4.1,91.0,41.14,,03-2025
a41266aa2d6b4604a5e6915e3aa35397,GO.Drive VIP Chauffeur Service.,Riyadh Province,Riyadh,"Building number 3036, Office number 02, Ground Floor Omar Ibn Abdulaziz Road, Malaz Riyadh 12812, Riyadh 11543, Saudi Arabia",11543,46.75143475,24.6881488,Travel & Lodging,Travel Agencies,Transportation service,Open 24 hours,+92 300 2873071,godriveksa.com,4.0,2.0,26.57,,03-2025
5c45c84a5ae42670a00d78d56c3189c7,Saptco,Riyadh Province,Riyadh,"Al Ilmin, Ghirnatah, Riyadh 13241, Saudi Arabia",13241,46.73315142,24.7855446,Travel & Lodging,Travel Agencies,Transportation service,Open,+966 9200 00877,saptco.com.sa,3.7,204.0,32.29,,03-2025
c5fe20fb61fd0de809995a1fb256ce4f,Rehla Taif - Travel Agency رحلة الطائف سفر و سياحة,Taif,Taif,"Hassan Ibn Thabit, street، Taif 26513, Saudi Arabia",26513,40.41734123,21.26619615,Travel & Lodging,Travel Agencies,Travel agency,Open,+966 50 889 6000,alahmaritravel.com,5.0,46.0,36.71,,03-2025
89275ab3af8ba443aab47b6b60a5252d,Alaklobi travel and tours,Aseer Province,Bisha,"Alkhuzama, Bisha 67711, Saudi Arabia",67711,42.6168068,20.01180981,Travel & Lodging,Travel Agencies,Travel agency,Open,+966 9200 10463,twitter.com,3.4,19.0,36.43,,03-2025
b36426d5cbbe11e7e26898e611d91b24,Ajwaa Tabuk Travel & Tourism | وكالة أجواء تبوك للسياحة والسفر,Tabuk Principality,Tabuk,"شارع أبي بكر الصديق, Al Wurud, Tabuk 47315, Saudi Arabia",47315,36.5807195,28.41586093,Travel & Lodging,Travel Agencies,Travel agency,Open,+966 14 421 4445,saudisilkroad.com,4.4,106.0,32.71,,03-2025
aa100208f373f8b6c393b8dbae798190,Fursan Travel & Tourism,Riyadh Province,Riyadh,"حي, Anas Ibn Malik Rd, Al Malqa, Riyadh 13522, Saudi Arabia",,46.59799814,24.80041683,Travel & Lodging,Travel Agencies,Travel agency,Open,+966 9200 00442,fursan.com.sa,3.8,342.0,62.4,People typically spend up to 4 hours here,03-2025
267c12c9af5b79122a21881e3881cf37,العربية للنقل الدولي,Dammam Metropolitan Area,Dammam,"King Saud St, Al Khalij, Dammam 32425, Saudi Arabia",32425,50.08986995,26.44446248,Travel & Lodging,Travel Agencies,Transportation service,Open,+966 55 770 7579,facebook.com,3.5,279.0,59.14,,03-2025
ecf13b0492f61972dd11e4f0dd2c9a6b,Otex Madina - Citylink Trade & Transport Co. Ltd.,Al Madinah Province,Huraymila,"Madina Almunawrah St, Huraymila 42721, Saudi Arabia",42721,39.49447714,24.3998008,Travel & Lodging,Travel Agencies,Transportation service,Open,+966 55 335 1497,clgoc.com,4.1,35.0,61.5,,03-2025
238519fedb7db407d87cfddcdf8fa3d7,Ebhaar International Ltd Co.,Dammam Metropolitan Area,Dammam,"King Abdul Aziz Seaport, Dammam 32212, Saudi Arabia",32212,50.18619895,26.4343315,Travel & Lodging,Travel Agencies,Transportation service,Open,+966 50 587 9073,ebhaar.com,5.0,4.0,44.17,,03-2025
594baf1844822f946c25ae4c46da5c68,alriyadh travel,Riyadh Province,Riyadh,"3710 Al-Imam Ahmad Bin Hanbal St, Ar Rayyan, Riyadh 14214, Saudi Arabia",14214,46.7758468,24.7026783,Travel & Lodging,Travel Agencies,Travel agency,Open,+966 11 245 4772,alriyadhtravel.com,4.3,152.0,23.86,,03-2025
39f61db526e1b5bdce4f533006fc63f4,UMRAH CAB,Al Madinah Province,Madinah,"Salam Road, Al Jamiah, Madinah 42221, Saudi Arabia",42221,39.56877118,24.47279895,Travel & Lodging,Travel Agencies,Travel agency,Open 24 hours,+966 56 779 9616,umrahcab.com,4.7,177.0,28.14,,03-2025
b5d92e003c7518ea5af90c93c068b95f,محطات العالم | Destinations Of The World,Almalik Fahd Dist.,Makkah,"4305، MDFB7906 الشيخ محمد بن جبير 7924 حي الملك فهد, Makkah 24342, Saudi Arabia",24342,39.78162794,21.39772825,Travel & Lodging,Travel Agencies,Tour agency,Open,+966 57 007 0170,dw2030.com,4.1,28.0,47.33,,03-2025
f7505ed2fc85410e39f9d34d2911b149,مكاتب العمرة بالبطحاء,Riyadh Province,Riyadh,"الرياض شارع البطحا العام النقل الجماعى القديم ، خلف المسجد للتواصل, Riyadh 11461, Saudi Arabia",11461,46.71290624,24.64417261,Travel & Lodging,Travel Agencies,Travel agency,Open,+966 57 822 4064,,3.6,195.0,30.0,People typically spend up to 4 hours here,03-2025
a384763d6332b932f38466eb61aaef5a,اريج للسفر والسياحة,Taif,Taif,"مقابل الاستاد الرياضي، شارع الستين, Al Hawiyah, Taif 26576, Saudi Arabia",26576,40.47257014,21.43835321,Travel & Lodging,Travel Agencies,Tour agency,Open,+966 9200 10165,areejtourism.com,4.2,149.0,40.29,,03-2025
d11d868e61b21436eb5d1da38ff38fec,Saptco,Makkah Province,Makkah,"At Taniem، 2414, 7094, Makkah 24412, Saudi Arabia",24412,39.79273213,21.49781775,Travel & Lodging,Travel Agencies,Travel agency,Open,+966 9200 00877,saptco.com.sa,4.3,227.0,,People typically spend up to 4 hours here,03-2025
0940cdbd85ae00e203ea2e0027603c0a,Travel Gate Group,Almalik Fahd Dist.,Makkah,"King Fahd, Makkah 24341, Saudi Arabia",24341,39.78116185,21.40211981,Travel & Lodging,Travel Agencies,Travel agency,Open 24 hours,+966 54 998 6405,hotelgate.com,2.0,8.0,24.86,,03-2025
09448a9f27d4f8747ef020fc580fd2fd,مكتب الحرمين لخدمات العمرة,Hail Province,Hail,"4983 موسى بن نصير،، 7569, Al Mahattah، 7569, Hail 55424, Saudi Arabia",55424,41.68486126,27.52160218,Travel & Lodging,Travel Agencies,Travel agency,Open,+966 50 622 8545,,3.8,423.0,23.43,People typically spend up to 1 hour here,03-2025
fd7b0c768b3ee0a6fe76015f1f3c7f8a,Ajwaad Travel & Tours,Riyadh Province,Riyadh,"Prince Turki Ibn Abdulaziz Al Awwal Rd, Al Mohammadiyyah, Riyadh 12362, Saudi Arabia",,46.64334052,24.72277069,Travel & Lodging,Travel Agencies,Tour agency,Open,+966 54 993 9939,ajwaadgroup.com,4.1,61.0,42.67,People typically spend up to 4 hours here,03-2025
22aa006f185f1e5127bbd121de17a1d4,شركة مزايا لنقل الحجاج والمعتمرين,Almalik Fahd Dist.,Makkah,"King Fahd, Makkah 24561, Saudi Arabia",24561,39.62697614,21.33513264,Travel & Lodging,Travel Agencies,Transportation service,Open 24 hours,+966 55 532 1515,mazaya-group.net,4.3,84.0,29.57,,03-2025
3a6f3fd723d6f7013c39c66ffcda158c,Northwest Bus KSA,Yanbu,Yanbu,"7564 Khalid Bin Alwalid, Al Saharij, Yanbu 46424, Saudi Arabia",46424,38.05739861,24.09000532,Travel & Lodging,Travel Agencies,Transportation service,Open 24 hours,+966 9200 20590,nwbus.sa,3.7,1048.0,38.71,,03-2025
34b0501e8747499c5439a1c872056692,وكالة سافر للسياحة,Riyadh Province,Riyadh,"طريق الأمير محمد ابن سلمان, Al Aqiq, Riyadh 13515, Saudi Arabia",13515,46.62860631,24.77433528,Travel & Lodging,Travel Agencies,Travel agency,Open,+966 53 000 3005,saferagency.com,4.7,194.0,33.0,,03-2025
b1e31edcd3efb7acc32a8ef59c134c7e,First station travels,Jeddah,Jeddah,"Al Sawari, Jeddah 23828, Saudi Arabia",23828,39.11763753,21.79527073,Travel & Lodging,Travel Agencies,Travel agency,Open,+966 50 660 6672,1st-station.com,2.0,1.0,31.17,,03-2025
260e99190d0ae38c2ba994eb8357fc15,Wateen Al Gharbia Travel And Tours,Jeddah,Jeddah,"7073 Al Tadamun Al Arabi, Mishrifah District، 2887، Jeddah 23341, Saudi Arabia",23341,39.20779017,21.54459198,Travel & Lodging,Travel Agencies,Travel agency,Open,+966 56 157 2296,facebook.com,4.5,13.0,28.43,,03-2025
fd3a0a02a98d4a01df07d39ebfdfdecb,Alsafar Education & Tourism Visa,Jeddah,Jeddah,"Al-Madinah Al-Munawarah Rd, Al Sharafeyah, Jeddah 21495, Saudi Arabia",21495,39.17951419,21.51224736,Travel & Lodging,Travel Agencies,Travel agency,Open,+966 12 651 5004,alsafaronline.com,3.9,84.0,35.33,,03-2025
c8e60421315f16fbca16b211924aaa6d,الشركة السعودية للنقل الجماعي فرع الدغارير,Samtah,Al Dagharir,"شارع, Al Dagharir 86761, Saudi Arabia",86761,42.96044143,16.66794469,Travel & Lodging,Travel Agencies,Transportation service,Open,+966 9200 00877,saptco.com.sa,3.7,241.0,36.0,,03-2025
01df4770382f9a2b880b27eb6c5a126a,Al Mohand Travel & Cars المهند لخدمات السفر والسيارات,Taif,Taif,"Taif 26523, Saudi Arabia",26523,40.41328265,21.27925575,Travel & Lodging,Travel Agencies,Travel agency,Open,+966 50 517 3860,al-mohanad.com,4.1,17.0,38.0,,03-2025
ad9cba1fd915e32771ab614c0fab032b,Dent South Fanateer Boat Rental vs. Alphenanar Mall,Sudayr,Hail,"Al Khalij Al Arabi, Fanateer, Hail 35810, Saudi Arabia",35810,49.5666316,27.13550251,Travel & Lodging,Cruises & Ferries,Boat rental service,Open 24 hours,+966 55 374 6851,snapchat.com,3.9,81.0,30.57,,03-2025
7d29157a313595fc58781b7d3b4a3771,مجموعة القليطي الدولية للحج والعمرة - تبوك,Tabuk Principality,Tabuk,"Assulimaniyah, Tabuk 11111, Saudi Arabia",11111,36.57875027,28.40395475,Travel & Lodging,Travel Agencies,Travel agency,Open,+966 55 999 0291,,2.4,67.0,38.0,People typically spend up to 4 hours here,03-2025
f533c9f424d6a9cf657f913e489d4702,المسافر للسفر والسياحة,Riyadh Province,Riyadh,"Anas Ibn Malik Rd, Al Malqa, Riyadh 13521, Saudi Arabia",13521,46.61482547,24.80756866,Travel & Lodging,Travel Agencies,Travel agency,Open,+966 9200 00997,almosafer.com,3.5,317.0,36.57,,03-2025
f2f37b79830113495f73cd8d22f3aaab,Sky Wings Travel And Tourism,Riyadh Province,Riyadh,"2615 Prince Turki Bin Abdulaziz Althani St, Al Muruj, Riyadh 12281, Saudi Arabia",12281,46.65401169,24.75556565,Travel & Lodging,Travel Agencies,Travel agency,Open,+966 11 406 9996,skywings-ksa.com,4.3,34.0,31.14,,03-2025
d71a96811ac41c48a7c6626a414200eb,Akbar Travels and Tourism Co. Dammam,Dammam Metropolitan Area,Dammam,"King Saud St, Al Dawasir, Dammam 32416, Saudi Arabia",,50.0992688,26.44269828,Travel & Lodging,Travel Agencies,Travel agency,Open,+966 13 832 5454,akbartravels.com,3.8,146.0,41.71,People typically spend up to 2.5 hours here,03-2025
f33b9869175911c6b45e80daed6b8227,The Golden Vacation Travel & Tourism - الإجازة الذهبية للسفر والسياحة,Riyadh Province,Riyadh,"Prince Saad Ibn Abdulrahman Al Awal Branch Rd, Ar Rawabi, Riyadh 28381, Saudi Arabia",28381,46.77842316,24.68106343,Travel & Lodging,Travel Agencies,Travel agency,Open,+966 9200 11782,gv.sa,4.6,375.0,40.17,,03-2025
39a03d666aff1323cd7e622e80fb56bf,Saptco,Hail Province,Hail,"7158, Al Mahattah, Hail 55424, Saudi Arabia",55424,41.69077932,27.51759274,Travel & Lodging,Travel Agencies,Transportation service,Open 24 hours,+966 16 531 0101,saptco.com.sa,3.7,2875.0,54.0,,03-2025
4cca0138c8c290f8187b9451936432e2,AlBassami,Dammam Metropolitan Area,Dammam,"4719, King Fahd Suburb, 9122, Dammam 32313, Saudi Arabia",32313,50.00985716,26.4005679,Travel & Lodging,Travel Agencies,Transportation service,Open,+966 13 822 0914,salbassami.com,3.8,121.0,30.17,,03-2025
c343028b937a8294b14db523305d2eb9,Akbar AlamTravel& Tourism Co Br .Gubira,Riyadh Province,Riyadh,"عمار بن ياسر -رضي الله عنهما-، غبيرة، الرياض 12665, Riyadh 12665, Saudi Arabia",12665,46.73204024,24.62071151,Travel & Lodging,Travel Agencies,Travel agency,Open,+966 50 915 6006,facebook.com,4.0,26.0,38.57,,03-2025
ee9fb48824ee4f5c18aba3728b5fbfcb,KAUST Visitors Center Office,Jeddah,King Abdullah University Of Science And Technology,"King Abdullah Blvd, King Abdullah University Of Science And Technology 23955, Saudi Arabia",23955,39.12973837,22.32264819,Travel & Lodging,Tourist Information,Visitor center,Open,+966 12 808 5973,kaust.edu.sa,4.6,1322.0,,People typically spend up to 30 min here,03-2025
e73b6194fe4bb18a97f3048953310f5f,وكالة ترحال القطيف للسياحة والسفر,Dammam Metropolitan Area,Al Qatif,"7365 Al Khalifah Omar St، 2671-2715, Al Qatif 31911, Saudi Arabia",31911,50.00094186,26.55772426,Travel & Lodging,Travel Agencies,Travel agency,Open,+966 55 996 2381,instagram.com,4.9,40.0,49.14,,03-2025
20c6c38a24a94eee0bbefb96981f0da4,المتميزون للنقل المدرسي فرع النسيم,Jeddah,Jeddah,"حي, Bani Malek, An Naseem, Jeddah 23234, Saudi Arabia",23234,39.2285501,21.52772612,Travel & Lodging,Travel Agencies,Transportation service,Open,+966 55 935 5977,almutamyzon.net,3.8,70.0,43.0,,03-2025
5a4bcc1475b28929ef7f2f6ae84d210d,وكالة بيسان للسفر والسياحة,Al Qassim Province,Buraydah,"7325 King Abdulaziz Rd, At Taghirah, Buraydah 52361, Saudi Arabia",52361,43.96675575,26.33400476,Travel & Lodging,Travel Agencies,Travel agency,Open,+966 55 750 1717,bisan.com.sa,4.1,172.0,27.14,,03-2025
93f99f295970260f970972ee1d4d2bc6,JHAH Visitors Center,Dammam Metropolitan Area,Dhahran,"6th Street, Gharb Al Dhahran, Dhahran 34462, Saudi Arabia",34462,50.13361018,26.3155337,Travel & Lodging,Tourist Information,Visitor center,Open,,saudiaramco.com,4.3,329.0,56.71,People typically spend up to 25 min here,03-2025
58c906eae0ea59f970058486b3b9d97e,MyHotels HQ | فنادقي المكتب الرئيسي,Makkah Province,Makkah,"حي، الطابق الخامس، مكتب 302, Al Shoqiyah، 8084 شارع عبدالله بن العباس رضي الله عنهما، الرقم الإضافي 6185, Makkah 24232, Saudi Arabia",24232,39.79381353,21.38951472,Travel & Lodging,Travel Agencies,Travel agency,Open 24 hours,+966 9200 33025,myhotels.sa,4.7,107.0,29.86,,03-2025
33e604fd7d287aadbbd1706d707b9a17,Taibah Agency for Umrah,Dammam Metropolitan Area,Dammam,"18th Street, Ibn Khaldun, Dammam 32253, Saudi Arabia",32253,50.09416177,26.4236342,Travel & Lodging,Travel Agencies,Tour agency,Open,+966 54 121 6804,,4.5,1044.0,41.43,People typically spend up to 2.5 hours here,03-2025
761fbfd5581537599ea15b3cc0d57206,مجموعة سيرا - Seera Group‎‎‎,Jazan Province,Jazan,"7750, Jazan 82731, Saudi Arabia",82731,42.57995344,16.89891749,Travel & Lodging,Travel Agencies,Travel agency,Open 24 hours,+966 9200 12333,seera.sa,3.5,63.0,30.0,,03-2025
cb14b153a72957815065b258108b396e,الهدف للسفر والسياحة,Riyadh Province,Riyadh,"شارع السليمانية, Al Aqiq, Riyadh 13515, Saudi Arabia",13515,46.62071748,24.7820174,Travel & Lodging,Travel Agencies,Tour agency,Open,+966 11 222 0260,alhadf.sa,4.6,404.0,51.0,,03-2025
c94a54e2b1e8e2ebed2cd71f4f28a506,ASFAR Travel & Tourism,Riyadh Province,Riyadh,"Al Mashael, Riyadh 14325, Saudi Arabia",14325,46.84595882,24.61177113,Travel & Lodging,Travel Agencies,Travel agency,Open,+966 54 342 3246,,4.4,10.0,43.14,People typically spend up to 4 hours here,03-2025
5b4f7e669f7a2ceccedf611580bedaef,Anniedamz Travel And Tours,Riyadh Province,Riyadh,"Street, Abi Al Mahd, Al Olaya, Riyadh 12221, Saudi Arabia",12221,46.69439321,24.68865125,Travel & Lodging,Travel Agencies,Airline ticket agency,Open 24 hours,+966 55 021 2976,wcatravel.com,5.0,1.0,22.86,,03-2025
5858f707e1fa44b4eb7480b30f831c2e,"Transportation, shifting services",Riyadh Province,Riyadh,"RIHA7556, Al Orouba, العروبة, Riyadh 12913, Saudi Arabia",12913,46.62456561,24.65881821,Travel & Lodging,Travel Agencies,Transportation service,Open 24 hours,+966 53 064 5618,khankpk.com,5.0,20.0,30.43,,03-2025
821dad912e90703cb9afa3c6f192a306,Masar Al Dhiyafah Travel & Tours مسار الضيافة للسفر و السياحة,Makkah Province,Makkah,"Ar Rusayfah, Al-Nakheel Plaza, Makkah 21955, Saudi Arabia",21955,39.78918461,21.40949712,Travel & Lodging,Travel Agencies,Travel agency,Open,+966 53 278 3221,lottrips.com,4.7,27.0,39.71,,03-2025
449554c3136f8626973a41acf8d6391b,Fly Gawish فلاي جاويش,Makkah Province,Makkah,"النزهه اعلى البنك الاهلى السعودى, Al Diyafah, عمارات وقف مدارس الفلاح دور m1 حى, Makkah 24221, Saudi Arabia",24221,39.80166746,21.43303054,Travel & Lodging,Travel Agencies,Travel agency,Open,+966 9200 33414,fly-gawish.com,4.8,378.0,22.0,,03-2025
bb4253c00839585dcb08c70db184a51d,سام تيكت للسفر و السياحة,Riyadh Province,Riyadh,"مخرج 7, Northern Ring Rd, Al Izdihar, Riyadh 12487, Saudi Arabia",12487,46.70329415,24.78488914,Travel & Lodging,Travel Agencies,Travel agency,Open,+966 55 600 9720,sam-ticket.com,4.7,31.0,41.17,,03-2025
f690a0addc06f02b23921edd5afec917,مسارات العالم للسفر و السياحة والتأشيرات,Dammam Metropolitan Area,Dammam,"7342 Khwarizmi Road, Badr, 2628, Dammam 32266, Saudi Arabia",32266,50.01594624,26.41301434,Travel & Lodging,Travel Agencies,Travel agency,Open,+966 9200 31376,linktr.ee,4.8,231.0,39.83,,03-2025
e9f2fe6aed4d4e7b58d5ea5994ed24d1,AMINCI GULF TRAVEL & TOURISM AGENCY,Dammam Metropolitan Area,Dammam,"4100 SOUQ DISTRICT 8302, Dammam 32242, Saudi Arabia",32242,50.10042497,26.44243781,Travel & Lodging,Travel Agencies,Travel agency,Open,+966 54 673 7623,amincitravels.com,4.8,47.0,33.0,,03-2025
550ed9d71de508e3fec27b0fa4e52159,Dreams Time Travel,Riyadh Province,Riyadh,"Jarir St, Al Malaz, Riyadh 12831, Saudi Arabia",12831,46.73022588,24.67100944,Travel & Lodging,Travel Agencies,Travel agency,Open,+966 53 880 1255,dreamstime.sa,4.9,28.0,35.17,,03-2025
df58e2790d34d217dc60c7f008317878,Hafif Travel & Toursim,Riyadh Province,Riyadh,"Al Malaz, Riyadh 12836, Saudi Arabia",12836,46.73278862,24.67145332,Travel & Lodging,Travel Agencies,Travel agency,Open,+966 9200 04760,,4.2,61.0,40.29,People typically spend up to 2.5 hours here,03-2025
a97be1c0580b3c9087a8badbdd73545f,ALL STAR TRAVELS & TOURISM,Sultanah,Riyadh,"حي سلطانة RBSA3912، 3912 سلطانة، 7342, Riyadh 12772, Saudi Arabia",12772,46.68635039,24.60897949,Travel & Lodging,Travel Agencies,Travel agency,Open,+966 54 028 1091,,5.0,7.0,28.0,People typically spend up to 4 hours here,03-2025
e52eb568e2406ca4d2a04be6b090ee69,Star Travel ستار ترافيل,Riyadh Province,Riyadh,"Al Khalil Ibn Ahmad, Badr, Riyadh 11461, Saudi Arabia",11461,46.6928025,24.54256033,Travel & Lodging,Travel Agencies,Travel agency,Open,+966 55 630 6817,startravel21.com,4.8,16.0,23.33,,03-2025
48d08c5ce200d7d886dd2dbbe491ec6b,Travel Hero | بطل السفر,Jeddah,Jeddah,"8533 Al Bathaa, Al Faisaliyyah, Jeddah 23442, Saudi Arabia",23442,39.16440741,21.57874267,Travel & Lodging,Travel Agencies,Tourist information center,Open 24 hours,+90 534 471 89 96,travelhero.app,5.0,1.0,25.0,,03-2025
e24c89e097c972d545dc8550fee9ade8,Ezhar Travel and Tourism - إزهار للسفر والسياحة,Riyadh Province,Riyadh,"BADI AL ZAMAN STREET, As Suwaidi, Riyadh 11545, Saudi Arabia",11545,46.64579215,24.57878436,Travel & Lodging,Travel Agencies,Travel agency,Open,+966 59 353 5610,ezhartravels.com,4.6,22.0,38.14,,03-2025
fc02e24235704f5d5d52f83c79453f5f,Arabian Sky Travels & Tourism Company,Jeddah,Jeddah,"5069 King Khalid Road, Al-Baghdadiyah Al-Sharqiyah, Jeddah 22234, Saudi Arabia",22234,39.18565044,21.50245326,Travel & Lodging,Travel Agencies,Travel agency,Open,+966 50 888 3601,arabianskytravels.com,4.9,67.0,38.71,,03-2025
ce59d9634494f009fce363c172d0edbb,سما الريان للسياحة والسفر,حي النهضة,Buraydah,"بجوار روم ان, Uthman Ibn Affan Rd, حي النهضة، Buraydah 52388, Saudi Arabia",52388,43.92784595,26.40369928,Travel & Lodging,Travel Agencies,Travel agency,Open 24 hours,+966 53 646 1777,samaalrayantrvl.com,4.8,16.0,22.57,,03-2025
702e21b20e7449fae8452bdea9a904c6,وكالة سما الريان,Hail Province,Hail,"المحطة،، 5484 طريق عقدة، المحطة، حائل 55424 7574،،, Hail 55424،, Saudi Arabia",55424،,41.6899056,27.5213752,Travel & Lodging,Travel Agencies,Travel agency,Open 24 hours,+966 53 646 0777,samaalrayantrvl.com,4.6,28.0,27.17,,03-2025
30d60932f9a464956cbad525a5c2316b,Umrah travel Company Buraydah Al Qasseem عمرة والزياره مكتب بردة القسيم,Al Qassim Province,Buraydah,"King Abdulaziz Rd, Al Jardah, Buraydah 52211, Saudi Arabia",52211,43.97348582,26.32555974,Travel & Lodging,Travel Agencies,Tour agency,Open 24 hours,+966 59 014 7218,facebook.com,4.5,202.0,20.57,,03-2025
5c39141a79ff8a7e37ea7bb94ab515b4,المطار بلس للسفر والسياحة,Makkah Province,Makkah,"2339 Muhammad Saleh Basharahil, Ar Rashidiyyah, Makkah 24268, Saudi Arabia",24268,39.94845083,21.46130869,Travel & Lodging,Travel Agencies,Travel agency,Open,+966 54 504 4006,almatarplus.com,4.8,68.0,33.43,,03-2025
2fd2e729cc84612e01dc725392acf52d,Umrah Taxi Service - Pick and Drop in Saudia,Makkah Province,Makkah,"Al Hedaya, road, Makkah 24242, Saudi Arabia",24242,39.87399038,21.38955753,Travel & Lodging,Travel Agencies,Transportation service,Open 24 hours,+966 59 351 3234,umrahtransportsaudia.com,4.8,56.0,28.29,,03-2025
c3b2988faf9db9144da271a2c0c84bc4,Umrah taxi,Makkah Province,Makkah,"Near Prince Sultan Road, Al Jamiah, Makkah 24235, Saudi Arabia",24235,39.86258091,21.39680486,Travel & Lodging,Travel Agencies,Transportation service,Open 24 hours,+966 59 525 7515,umrah-taxi.com,4.7,125.0,29.43,,03-2025
d2f846163461ac6a32647c1fad43b1e6,Al-Fakhamah Transport - الفخامة للنقل البري (Umrah Taxi),Makkah Province,Makkah,"مركز الخالدية التجاري, Al Sheikh Hasan Al Mashat, Al Khalidiyyah, Makkah 24232, Saudi Arabia",24232,39.79306837,21.40369524,Travel & Lodging,Travel Agencies,Transportation service,Open 24 hours,+966 56 044 4939,alfakhamahtransport.com,4.6,73.0,22.43,,03-2025
42fdb3ba25aa43dba4e143935ab75317,Toofaan Transport,Dammam Metropolitan Area,Region,"2nd Industrial Area Building No 7880 Secondary No 2758 Dammam, Region 34344, Saudi Arabia",34344,49.9395115,26.2039386,Travel & Lodging,Travel Agencies,Transportation service,Open 24 hours,+966 53 589 2124,toofaanksa.com,5.0,11.0,24.67,,03-2025
09031af7f8fd79401dc8d72e57d452c6,House Shifting Relocation Movers Packers Services khobar,Dammam Metropolitan Area,Al Khobar,"Al Khobar Al Janubiyah, Al Khobar 34611, Saudi Arabia",34611,50.21035192,26.27694589,Travel & Lodging,Travel Agencies,Transportation service,Open 24 hours,+966 58 237 2085,expatriates.com,4.7,47.0,25.57,,03-2025
161986eb885632115ca27e2baafdb7e3,SKY TRAVELS JEDDAH,Jeddah,Jeddah,"Ash, Khaled Ibn Al Walid, Al Sharafeyah, Jeddah 23216, Saudi Arabia",23216,39.18446057,21.51709553,Travel & Lodging,Travel Agencies,Travel agency,Open,+966 58 322 1894,skytravelsjeddah.com,4.1,17.0,54.43,,03-2025
941770324f03a45be2074ad31043d55c,Plaza Premium Lounge (International Departures),Jeddah,Jeddah,"Terminal 1, International Departures, King Abdulaziz International Airport, Near Gate 39, Jeddah 21442, Saudi Arabia",21442,39.16710845,21.66950782,Travel & Lodging,Travel Agencies,Travel lounge,Open 24 hours,+966 12 569 5077,plazapremiumlounge.com,4.3,641.0,29.71,,03-2025
6b1ff76cae2dcc0403e811ff932b7d79,Emirates Lounge,Jeddah,Jeddah,"King Abdulaziz International Airport, Terminal 1, King Abdulaziz International Airport, Jeddah 23635, Saudi Arabia",23635,39.16855685,21.67130249,Travel & Lodging,Travel Agencies,Travel lounge,Open,,emirates.com,4.3,30.0,30.71,People typically spend up to 1 hour here,03-2025
